{"type":"FeatureCollection","features":[{"type":"Feature","properties":{"OBJECTID":1,"COUNTY":"OCEAN","LATITUDE":40.09271796320052,"LONGITUDE":-74.04819191024015,"STATION":"Point Pleasant","RAIL_LINE":"North Jersey Coast Line","MUN_LABEL":"Point Pleasant Beach Borough","ATIS_ID":"RAIL0122","AMTRAK":"N"},"geometry":{"type":"Point","coordinates":[-74.04819333525961,40.092726095688846]}},{"type":"Feature","properties":{"OBJECTID":2,"COUNTY":"MONMOUTH","LATITUDE":40.150566561212116,"LONGITUDE":-74.03545958952978,"STATION":"Spring Lake","RAIL_LINE":"North Jersey Coast Line","MUN_LABEL":"Spring Lake Borough","ATIS_ID":"RAIL0141","AMTRAK":"N"},"geometry":{"type":"Point","coordinates":[-74.03546101388824,40.15057470564282]}},{"type":"Feature","properties":{"OBJECTID":3,"COUNTY":"MONMOUTH","LATITUDE":40.18058900073972,"LONGITUDE":-74.02729577790872,"STATION":"Belmar","RAIL_LINE":"North Jersey Coast Line","MUN_LABEL":"Belmar Borough","ATIS_ID":"RAIL0015","AMTRAK":"N"},"geometry":{"type":"Point","coordinates":[-74.02729720143086,40.18059715141619]}},{"type":"Feature","properties":{"OBJECTID":4,"COUNTY":"MONMOUTH","LATITUDE":40.20377525539778,"LONGITUDE":-74.01895649287731,"STATION":"Bradley Beach","RAIL_LINE":"North Jersey Coast Line","MUN_LABEL":"Bradley Beach Borough","ATIS_ID":"RAIL0022","AMTRAK":"N"},"geometry":{"type":"Point","coordinates":[-74.01895791510593,40.203783410965556]}},{"type":"Feature","properties":{"OBJECTID":5,"COUNTY":"MONMOUTH","LATITUDE":40.215360223124875,"LONGITUDE":-74.01478752991216,"STATION":"Asbury Park","RAIL_LINE":"North Jersey Coast Line","MUN_LABEL":"Asbury Park City","ATIS_ID":"RAIL0008","AMTRAK":"N"},"geometry":{"type":"Point","coordinates":[-74.01478895149403,40.21536838113577]}},{"type":"Feature","properties":{"OBJECTID":6,"COUNTY":"MONMOUTH","LATITUDE":40.237657502337996,"LONGITUDE":-74.00675940662958,"STATION":"Allenhurst","RAIL_LINE":"North Jersey Coast Line","MUN_LABEL":"Allenhurst Borough","ATIS_ID":"RAIL0004","AMTRAK":"N"},"geometry":{"type":"Point","coordinates":[-74.00676082696587,40.237665665049576]}},{"type":"Feature","properties":{"OBJECTID":7,"COUNTY":"MONMOUTH","LATITUDE":40.265323731890845,"LONGITUDE":-73.99758939525971,"STATION":"Elberon","RAIL_LINE":"North Jersey Coast Line","MUN_LABEL":"Long Branch City","ATIS_ID":"RAIL0040","AMTRAK":"N"},"geometry":{"type":"Point","coordinates":[-73.99759081430389,40.2653319004045]}},{"type":"Feature","properties":{"OBJECTID":8,"COUNTY":"MONMOUTH","LATITUDE":40.297147009174715,"LONGITUDE":-73.98833505612026,"STATION":"Long Branch","RAIL_LINE":"North Jersey Coast Line","MUN_LABEL":"Long Branch City","ATIS_ID":"RAIL0074","AMTRAK":"N"},"geometry":{"type":"Point","coordinates":[-73.98833647409258,40.297155184313176]}},{"type":"Feature","properties":{"OBJECTID":9,"COUNTY":"MONMOUTH","LATITUDE":40.31339403298163,"LONGITUDE":-74.01519010837302,"STATION":"Monmouth Park","RAIL_LINE":"North Jersey Coast Line","MUN_LABEL":"Oceanport Borough","ATIS_ID":"RAIL0162","AMTRAK":"N"},"geometry":{"type":"Point","coordinates":[-74.0151915358795,40.3134022104041]}},{"type":"Feature","properties":{"OBJECTID":10,"COUNTY":"MONMOUTH","LATITUDE":40.326712315483775,"LONGITUDE":-74.0410534159198,"STATION":"Little Silver","RAIL_LINE":"North Jersey Coast Line","MUN_LABEL":"Little Silver Borough","ATIS_ID":"RAIL0073","AMTRAK":"N"},"geometry":{"type":"Point","coordinates":[-74.04105485247185,40.326720494642345]}},{"type":"Feature","properties":{"OBJECTID":11,"COUNTY":"MONMOUTH","LATITUDE":40.34831262485301,"LONGITUDE":-74.07455108832389,"STATION":"Red Bank","RAIL_LINE":"North Jersey Coast Line","MUN_LABEL":"Red Bank Borough","ATIS_ID":"RAIL0130","AMTRAK":"N"},"geometry":{"type":"Point","coordinates":[-74.07455253685252,40.34832080711664]}},{"type":"Feature","properties":{"OBJECTID":12,"COUNTY":"MONMOUTH","LATITUDE":40.38978028229104,"LONGITUDE":-74.11613209247095,"STATION":"Middletown","RAIL_LINE":"North Jersey Coast Line","MUN_LABEL":"Middletown Township","ATIS_ID":"RAIL0085","AMTRAK":"N"},"geometry":{"type":"Point","coordinates":[-74.11613355674676,40.389788471295944]}},{"type":"Feature","properties":{"OBJECTID":13,"COUNTY":"MONMOUTH","LATITUDE":40.415380267255934,"LONGITUDE":-74.19039436589082,"STATION":"Hazlet","RAIL_LINE":"North Jersey Coast Line","MUN_LABEL":"Hazlet Township","ATIS_ID":"RAIL0059","AMTRAK":"N"},"geometry":{"type":"Point","coordinates":[-74.19039585540557,40.4153884587126]}},{"type":"Feature","properties":{"OBJECTID":14,"COUNTY":"MONMOUTH","LATITUDE":40.42016846717413,"LONGITUDE":-74.22369970020853,"STATION":"Aberdeen-Matawan","RAIL_LINE":"North Jersey Coast Line","MUN_LABEL":"Matawan Borough","ATIS_ID":"RAIL0082","AMTRAK":"N"},"geometry":{"type":"Point","coordinates":[-74.22370120064099,40.42017665840593]}},{"type":"Feature","properties":{"OBJECTID":15,"COUNTY":"MIDDLESEX","LATITUDE":40.48431010332059,"LONGITUDE":-74.28013728966076,"STATION":"South Amboy","RAIL_LINE":"North Jersey Coast Line","MUN_LABEL":"South Amboy City","ATIS_ID":"RAIL0139","AMTRAK":"N"},"geometry":{"type":"Point","coordinates":[-74.28013881197629,40.48431830520272]}},{"type":"Feature","properties":{"OBJECTID":16,"COUNTY":"MIDDLESEX","LATITUDE":40.509373491663766,"LONGITUDE":-74.27370313385185,"STATION":"Perth Amboy","RAIL_LINE":"North Jersey Coast Line","MUN_LABEL":"Perth Amboy City","ATIS_ID":"RAIL0119","AMTRAK":"N"},"geometry":{"type":"Point","coordinates":[-74.27370465563034,40.50938169870474]}},{"type":"Feature","properties":{"OBJECTID":17,"COUNTY":"MIDDLESEX","LATITUDE":40.556609555218294,"LONGITUDE":-74.27774644729966,"STATION":"Woodbridge","RAIL_LINE":"North Jersey Coast Line","MUN_LABEL":"Woodbridge Township","ATIS_ID":"RAIL0158","AMTRAK":"N"},"geometry":{"type":"Point","coordinates":[-74.27774797323428,40.55661777140301]}},{"type":"Feature","properties":{"OBJECTID":18,"COUNTY":"MIDDLESEX","LATITUDE":40.577688392718755,"LONGITUDE":-74.27746436925118,"STATION":"Avenel","RAIL_LINE":"North Jersey Coast Line","MUN_LABEL":"Woodbridge Township","ATIS_ID":"RAIL0011","AMTRAK":"N"},"geometry":{"type":"Point","coordinates":[-74.27746589637668,40.577696613053945]}},{"type":"Feature","properties":{"OBJECTID":19,"COUNTY":"UNION","LATITUDE":40.606390880352656,"LONGITUDE":-74.2768157286496,"STATION":"Rahway","RAIL_LINE":"NEC / NJCL","MUN_LABEL":"Rahway City","ATIS_ID":"RAIL0127","AMTRAK":"N"},"geometry":{"type":"Point","coordinates":[-74.27681725731456,40.60639910634529]}},{"type":"Feature","properties":{"OBJECTID":20,"COUNTY":"UNION","LATITUDE":40.62948780120565,"LONGITUDE":-74.2517685855473,"STATION":"Linden","RAIL_LINE":"NEC / NJCL","MUN_LABEL":"Linden City","ATIS_ID":"RAIL0070","AMTRAK":"N"},"geometry":{"type":"Point","coordinates":[-74.25177010761483,40.62949603261564]}},{"type":"Feature","properties":{"OBJECTID":21,"COUNTY":"UNION","LATITUDE":40.66785988785316,"LONGITUDE":-74.21516754101742,"STATION":"Elizabeth","RAIL_LINE":"NEC / NJCL","MUN_LABEL":"Elizabeth City","ATIS_ID":"RAIL0041","AMTRAK":"N"},"geometry":{"type":"Point","coordinates":[-74.2151690537224,40.66786812808075]}},{"type":"Feature","properties":{"OBJECTID":22,"COUNTY":"UNION","LATITUDE":40.680269267500464,"LONGITUDE":-74.20615891072231,"STATION":"North Elizabeth","RAIL_LINE":"NEC / NJCL","MUN_LABEL":"Elizabeth City","ATIS_ID":"RAIL0109","AMTRAK":"N"},"geometry":{"type":"Point","coordinates":[-74.2061604213031,40.680277510478284]}},{"type":"Feature","properties":{"OBJECTID":23,"COUNTY":"ESSEX","LATITUDE":40.70441530207224,"LONGITUDE":-74.19071363356093,"STATION":"Newark Airport","RAIL_LINE":"NEC / NJCL","MUN_LABEL":"Newark City","ATIS_ID":"RAIL0164","AMTRAK":"Y"},"geometry":{"type":"Point","coordinates":[-74.19071514067458,40.704423550325835]}},{"type":"Feature","properties":{"OBJECTID":24,"COUNTY":"ESSEX","LATITUDE":40.73425642444752,"LONGITUDE":-74.16454407759716,"STATION":"Newark Penn Station","RAIL_LINE":"NEC / NJCL / RVL","MUN_LABEL":"Newark City","ATIS_ID":"RAIL0107","AMTRAK":"Y"},"geometry":{"type":"Point","coordinates":[-74.16454557815965,40.734264679468]}},{"type":"Feature","properties":{"OBJECTID":25,"COUNTY":"HUNTERDON","LATITUDE":40.66688500330462,"LONGITUDE":-74.89585699961762,"STATION":"High Bridge","RAIL_LINE":"Raritan Valley Line","MUN_LABEL":"High Bridge Borough","ATIS_ID":"RAIL0060","AMTRAK":"N"},"geometry":{"type":"Point","coordinates":[-74.89585872958244,40.66689321895277]}},{"type":"Feature","properties":{"OBJECTID":26,"COUNTY":"HUNTERDON","LATITUDE":40.63691534703246,"LONGITUDE":-74.83576306938447,"STATION":"Lebanon","RAIL_LINE":"Raritan Valley Line","MUN_LABEL":"Lebanon Borough","ATIS_ID":"RAIL0068","AMTRAK":"N"},"geometry":{"type":"Point","coordinates":[-74.83576477832021,40.636923559001445]}},{"type":"Feature","properties":{"OBJECTID":27,"COUNTY":"HUNTERDON","LATITUDE":40.61561787926452,"LONGITUDE":-74.77065866987822,"STATION":"White House","RAIL_LINE":"Raritan Valley Line","MUN_LABEL":"Readington Township","ATIS_ID":"RAIL0157","AMTRAK":"N"},"geometry":{"type":"Point","coordinates":[-74.77066035673293,40.61562608941973]}},{"type":"Feature","properties":{"OBJECTID":28,"COUNTY":"SOMERSET","LATITUDE":40.59202749125712,"LONGITUDE":-74.68379249562349,"STATION":"North Branch","RAIL_LINE":"Raritan Valley Line","MUN_LABEL":"Branchburg Township","ATIS_ID":"RAIL0108","AMTRAK":"N"},"geometry":{"type":"Point","coordinates":[-74.68379415331789,40.59203569992097]}},{"type":"Feature","properties":{"OBJECTID":29,"COUNTY":"SOMERSET","LATITUDE":40.57099483819848,"LONGITUDE":-74.63436504052422,"STATION":"Raritan","RAIL_LINE":"Raritan Valley Line","MUN_LABEL":"Raritan Borough","ATIS_ID":"RAIL0129","AMTRAK":"N"},"geometry":{"type":"Point","coordinates":[-74.63436668115726,40.571003044514086]}},{"type":"Feature","properties":{"OBJECTID":30,"COUNTY":"SOMERSET","LATITUDE":40.56607340703752,"LONGITUDE":-74.61397131496413,"STATION":"Somerville","RAIL_LINE":"Raritan Valley Line","MUN_LABEL":"Somerville Borough","ATIS_ID":"RAIL0138","AMTRAK":"N"},"geometry":{"type":"Point","coordinates":[-74.61397294878986,40.566081613118826]}},{"type":"Feature","properties":{"OBJECTID":31,"COUNTY":"SOMERSET","LATITUDE":40.559912516770794,"LONGITUDE":-74.55173858469394,"STATION":"Bridgewater","RAIL_LINE":"Raritan Valley Line","MUN_LABEL":"Bridgewater Township","ATIS_ID":"RAIL0024","AMTRAK":"N"},"geometry":{"type":"Point","coordinates":[-74.5517401982903,40.55992072386961]}},{"type":"Feature","properties":{"OBJECTID":32,"COUNTY":"SOMERSET","LATITUDE":40.56092955028182,"LONGITUDE":-74.53061207501494,"STATION":"Bound Brook","RAIL_LINE":"Raritan Valley Line","MUN_LABEL":"Bound Brook Borough","ATIS_ID":"RAIL0021","AMTRAK":"N"},"geometry":{"type":"Point","coordinates":[-74.53061368193384,40.56093775833461]}},{"type":"Feature","properties":{"OBJECTID":33,"COUNTY":"MIDDLESEX","LATITUDE":40.59086807082185,"LONGITUDE":-74.46303809206289,"STATION":"Dunellen","RAIL_LINE":"Raritan Valley Line","MUN_LABEL":"Dunellen Borough","ATIS_ID":"RAIL0036","AMTRAK":"N"},"geometry":{"type":"Point","coordinates":[-74.46303967925321,40.590876287157805]}},{"type":"Feature","properties":{"OBJECTID":34,"COUNTY":"UNION","LATITUDE":40.61842707238479,"LONGITUDE":-74.42015616536004,"STATION":"Plainfield","RAIL_LINE":"Raritan Valley Line","MUN_LABEL":"Plainfield City","ATIS_ID":"RAIL0120","AMTRAK":"N"},"geometry":{"type":"Point","coordinates":[-74.42015774054838,40.61843529565189]}},{"type":"Feature","properties":{"OBJECTID":35,"COUNTY":"UNION","LATITUDE":40.629158419246664,"LONGITUDE":-74.4034388202379,"STATION":"Netherwood","RAIL_LINE":"Raritan Valley Line","MUN_LABEL":"Plainfield City","ATIS_ID":"RAIL0102","AMTRAK":"N"},"geometry":{"type":"Point","coordinates":[-74.40344039074498,40.62916664521231]}},{"type":"Feature","properties":{"OBJECTID":36,"COUNTY":"UNION","LATITUDE":40.64092298940521,"LONGITUDE":-74.38522256586745,"STATION":"Fanwood","RAIL_LINE":"Raritan Valley Line","MUN_LABEL":"Fanwood Borough","ATIS_ID":"RAIL0044","AMTRAK":"N"},"geometry":{"type":"Point","coordinates":[-74.38522413127686,40.64093121832452]}},{"type":"Feature","properties":{"OBJECTID":37,"COUNTY":"UNION","LATITUDE":40.649455298338985,"LONGITUDE":-74.34762440580987,"STATION":"Westfield","RAIL_LINE":"Raritan Valley Line","MUN_LABEL":"Westfield Town","ATIS_ID":"RAIL0155","AMTRAK":"N"},"geometry":{"type":"Point","coordinates":[-74.34762595972973,40.649463530266566]}},{"type":"Feature","properties":{"OBJECTID":38,"COUNTY":"UNION","LATITUDE":40.65256575665138,"LONGITUDE":-74.32483368843224,"STATION":"Garwood","RAIL_LINE":"Raritan Valley Line","MUN_LABEL":"Garwood Borough","ATIS_ID":"RAIL0047","AMTRAK":"N"},"geometry":{"type":"Point","coordinates":[-74.32483523525975,40.652573989997606]}},{"type":"Feature","properties":{"OBJECTID":39,"COUNTY":"UNION","LATITUDE":40.65557126731717,"LONGITUDE":-74.30287779637887,"STATION":"Cranford","RAIL_LINE":"Raritan Valley Line","MUN_LABEL":"Cranford Township","ATIS_ID":"RAIL0032","AMTRAK":"N"},"geometry":{"type":"Point","coordinates":[-74.30287933637335,40.65557950203126]}},{"type":"Feature","properties":{"OBJECTID":40,"COUNTY":"SOMERSET","LATITUDE":40.720057427032,"LONGITUDE":-74.66607101045672,"STATION":"Gladstone","RAIL_LINE":"Gladstone Branch/M&E","MUN_LABEL":"Peapack-Gladstone Borough","ATIS_ID":"RAIL0049","AMTRAK":"N"},"geometry":{"type":"Point","coordinates":[-74.66607267044104,40.720065661379174]}},{"type":"Feature","properties":{"OBJECTID":41,"COUNTY":"SOMERSET","LATITUDE":40.708779685586265,"LONGITUDE":-74.6584612704716,"STATION":"Peapack","RAIL_LINE":"Gladstone Branch/M&E","MUN_LABEL":"Peapack-Gladstone Borough","ATIS_ID":"RAIL0117","AMTRAK":"N"},"geometry":{"type":"Point","coordinates":[-74.65846292732498,40.7087879180045]}},{"type":"Feature","properties":{"OBJECTID":42,"COUNTY":"SOMERSET","LATITUDE":40.685715671651174,"LONGITUDE":-74.63378538658817,"STATION":"Far Hills","RAIL_LINE":"Gladstone Branch/M&E","MUN_LABEL":"Far Hills Borough","ATIS_ID":"RAIL0045","AMTRAK":"N"},"geometry":{"type":"Point","coordinates":[-74.63378703413203,40.68572390044961]}},{"type":"Feature","properties":{"OBJECTID":43,"COUNTY":"SOMERSET","LATITUDE":40.71683870822926,"LONGITUDE":-74.57103434837371,"STATION":"Bernardsville","RAIL_LINE":"Gladstone Branch/M&E","MUN_LABEL":"Bernardsville Borough","ATIS_ID":"RAIL0018","AMTRAK":"N"},"geometry":{"type":"Point","coordinates":[-74.57103597781295,40.7168469453658]}},{"type":"Feature","properties":{"OBJECTID":44,"COUNTY":"SOMERSET","LATITUDE":40.711405119088184,"LONGITUDE":-74.55527216406276,"STATION":"Basking Ridge","RAIL_LINE":"Gladstone Branch/M&E","MUN_LABEL":"Bernards Township","ATIS_ID":"RAIL0012","AMTRAK":"N"},"geometry":{"type":"Point","coordinates":[-74.55527378813126,40.7114133557284]}},{"type":"Feature","properties":{"OBJECTID":45,"COUNTY":"SOMERSET","LATITUDE":40.68487759989223,"LONGITUDE":-74.54949887782948,"STATION":"Lyons","RAIL_LINE":"Gladstone Branch/M&E","MUN_LABEL":"Bernards Township","ATIS_ID":"RAIL0076","AMTRAK":"N"},"geometry":{"type":"Point","coordinates":[-74.54950049841236,40.68488583155247]}},{"type":"Feature","properties":{"OBJECTID":46,"COUNTY":"MORRIS","LATITUDE":40.67352403868538,"LONGITUDE":-74.5235951419552,"STATION":"Millington","RAIL_LINE":"Gladstone Branch/M&E","MUN_LABEL":"Long Hill Township","ATIS_ID":"RAIL0088","AMTRAK":"N"},"geometry":{"type":"Point","coordinates":[-74.52359675356486,40.67353226905211]}},{"type":"Feature","properties":{"OBJECTID":47,"COUNTY":"MORRIS","LATITUDE":40.67457670758519,"LONGITUDE":-74.49377807453487,"STATION":"Stirling","RAIL_LINE":"Gladstone Branch/M&E","MUN_LABEL":"Long Hill Township","ATIS_ID":"RAIL0143","AMTRAK":"N"},"geometry":{"type":"Point","coordinates":[-74.49377967668735,40.674584939224445]}},{"type":"Feature","properties":{"OBJECTID":48,"COUNTY":"MORRIS","LATITUDE":40.678260351821415,"LONGITUDE":-74.46829151894059,"STATION":"Gillette","RAIL_LINE":"Gladstone Branch/M&E","MUN_LABEL":"Long Hill Township","ATIS_ID":"RAIL0048","AMTRAK":"N"},"geometry":{"type":"Point","coordinates":[-74.46829311317977,40.67826858509229]}},{"type":"Feature","properties":{"OBJECTID":49,"COUNTY":"UNION","LATITUDE":40.69502811766318,"LONGITUDE":-74.40322050275039,"STATION":"Murray Hill","RAIL_LINE":"Gladstone Branch/M&E","MUN_LABEL":"New Providence Borough","ATIS_ID":"RAIL0099","AMTRAK":"N"},"geometry":{"type":"Point","coordinates":[-74.40322207723244,40.69503635653698]}},{"type":"Feature","properties":{"OBJECTID":50,"COUNTY":"UNION","LATITUDE":40.682333296545046,"LONGITUDE":-74.44267059064532,"STATION":"Berkeley Heights","RAIL_LINE":"Gladstone Branch/M&E","MUN_LABEL":"Berkeley Heights Township","ATIS_ID":"RAIL0017","AMTRAK":"N"},"geometry":{"type":"Point","coordinates":[-74.44267217695091,40.68234153152767]}},{"type":"Feature","properties":{"OBJECTID":51,"COUNTY":"UNION","LATITUDE":40.712114139798835,"LONGITUDE":-74.38644431965622,"STATION":"New Providence","RAIL_LINE":"Gladstone Branch/M&E","MUN_LABEL":"New Providence Borough","ATIS_ID":"RAIL0104","AMTRAK":"N"},"geometry":{"type":"Point","coordinates":[-74.38644588982798,40.71212238261336]}},{"type":"Feature","properties":{"OBJECTID":52,"COUNTY":"UNION","LATITUDE":40.71653760645072,"LONGITUDE":-74.35774978140881,"STATION":"Summit","RAIL_LINE":"Morristown Line/M&E","MUN_LABEL":"Summit City","ATIS_ID":"RAIL0145","AMTRAK":"N"},"geometry":{"type":"Point","coordinates":[-74.35775134268042,40.71654585115243]}},{"type":"Feature","properties":{"OBJECTID":53,"COUNTY":"ESSEX","LATITUDE":40.725264344391114,"LONGITUDE":-74.32379711262041,"STATION":"Short Hills","RAIL_LINE":"Morristown Line/M&E","MUN_LABEL":"Millburn Township","ATIS_ID":"RAIL0136","AMTRAK":"N"},"geometry":{"type":"Point","coordinates":[-74.32379866357321,40.72527259200774]}},{"type":"Feature","properties":{"OBJECTID":54,"COUNTY":"ESSEX","LATITUDE":40.7256348159014,"LONGITUDE":-74.30381063438618,"STATION":"Millburn","RAIL_LINE":"Morristown Line/M&E","MUN_LABEL":"Millburn Township","ATIS_ID":"RAIL0087","AMTRAK":"N"},"geometry":{"type":"Point","coordinates":[-74.3038121789708,40.72564306430079]}},{"type":"Feature","properties":{"OBJECTID":55,"COUNTY":"ESSEX","LATITUDE":40.731160003627195,"LONGITUDE":-74.2754039994535,"STATION":"Maplewood","RAIL_LINE":"Morristown Line/M&E","MUN_LABEL":"Maplewood Township","ATIS_ID":"RAIL0081","AMTRAK":"N"},"geometry":{"type":"Point","coordinates":[-74.27540553529249,40.731168254116085]}},{"type":"Feature","properties":{"OBJECTID":56,"COUNTY":"ESSEX","LATITUDE":40.745899795869974,"LONGITUDE":-74.26058094472056,"STATION":"South Orange","RAIL_LINE":"Morristown Line/M&E","MUN_LABEL":"South Orange Village Township","ATIS_ID":"RAIL0140","AMTRAK":"N"},"geometry":{"type":"Point","coordinates":[-74.26058247672228,40.74590804976791]}},{"type":"Feature","properties":{"OBJECTID":57,"COUNTY":"ESSEX","LATITUDE":40.75541699680218,"LONGITUDE":-74.25298513810566,"STATION":"Mountain Station","RAIL_LINE":"Morristown Line/M&E","MUN_LABEL":"South Orange Village Township","ATIS_ID":"RAIL0097","AMTRAK":"N"},"geometry":{"type":"Point","coordinates":[-74.25298666826129,40.7554252528307]}},{"type":"Feature","properties":{"OBJECTID":58,"COUNTY":"ESSEX","LATITUDE":40.76688314947837,"LONGITUDE":-74.24372359866003,"STATION":"Highland Avenue","RAIL_LINE":"Morristown Line/M&E","MUN_LABEL":"City of Orange Township","ATIS_ID":"RAIL0061","AMTRAK":"N"},"geometry":{"type":"Point","coordinates":[-74.24372512655603,40.76689140807712]}},{"type":"Feature","properties":{"OBJECTID":59,"COUNTY":"ESSEX","LATITUDE":40.77188877060411,"LONGITUDE":-74.23313003594484,"STATION":"Orange","RAIL_LINE":"Morristown Line/M&E","MUN_LABEL":"City of Orange Township","ATIS_ID":"RAIL0112","AMTRAK":"N"},"geometry":{"type":"Point","coordinates":[-74.23313156075831,40.77189703055709]}},{"type":"Feature","properties":{"OBJECTID":60,"COUNTY":"ESSEX","LATITUDE":40.765494435038526,"LONGITUDE":-74.21926807598442,"STATION":"Brick Church","RAIL_LINE":"Morristown Line/M&E","MUN_LABEL":"East Orange City","ATIS_ID":"RAIL0023","AMTRAK":"N"},"geometry":{"type":"Point","coordinates":[-74.2192695959699,40.765502694232964]}},{"type":"Feature","properties":{"OBJECTID":61,"COUNTY":"ESSEX","LATITUDE":40.76103535815598,"LONGITUDE":-74.21096072055508,"STATION":"East Orange","RAIL_LINE":"Morristown Line/M&E","MUN_LABEL":"East Orange City","ATIS_ID":"RAIL0037","AMTRAK":"N"},"geometry":{"type":"Point","coordinates":[-74.21096223760892,40.761043616772916]}},{"type":"Feature","properties":{"OBJECTID":62,"COUNTY":"ESSEX","LATITUDE":40.747619190468534,"LONGITUDE":-74.17189881553684,"STATION":"Newark Broad Street","RAIL_LINE":"Morris & Essex Line","MUN_LABEL":"Newark City","ATIS_ID":"RAIL0106","AMTRAK":"N"},"geometry":{"type":"Point","coordinates":[-74.17190031926935,40.74762744784382]}},{"type":"Feature","properties":{"OBJECTID":63,"COUNTY":"NEW YORK CITY, NY","LATITUDE":40.750053003341115,"LONGITUDE":-73.9923569997987,"STATION":"New York Penn Station","RAIL_LINE":"NEC / NJCL / M&E","MUN_LABEL":"New York City, NY","ATIS_ID":"RAIL0105","AMTRAK":"Y"},"geometry":{"type":"Point","coordinates":[-73.99235844619824,40.75006126751781]}},{"type":"Feature","properties":{"OBJECTID":64,"COUNTY":"MORRIS","LATITUDE":40.90738432788125,"LONGITUDE":-74.73064544057507,"STATION":"Mount Olive","RAIL_LINE":"Montclair-Boonton Line/M&E","MUN_LABEL":"Mount Olive Township","ATIS_ID":"RAIL0093","AMTRAK":"N"},"geometry":{"type":"Point","coordinates":[-74.73064713292399,40.907392596388895]}},{"type":"Feature","properties":{"OBJECTID":65,"COUNTY":"WARREN","LATITUDE":40.85202342226036,"LONGITUDE":-74.83478946328202,"STATION":"Hackettstown","RAIL_LINE":"Montclair-Boonton Line/M&E","MUN_LABEL":"Hackettstown Town","ATIS_ID":"RAIL0054","AMTRAK":"N"},"geometry":{"type":"Point","coordinates":[-74.83479118540642,40.852031676218516]}},{"type":"Feature","properties":{"OBJECTID":66,"COUNTY":"MORRIS","LATITUDE":40.89756056081714,"LONGITUDE":-74.70726246908359,"STATION":"Netcong","RAIL_LINE":"Montclair-Boonton Line/M&E","MUN_LABEL":"Netcong Borough","ATIS_ID":"RAIL0101","AMTRAK":"N"},"geometry":{"type":"Point","coordinates":[-74.70726415333998,40.897568828263786]}},{"type":"Feature","properties":{"OBJECTID":67,"COUNTY":"MORRIS","LATITUDE":40.90433375993054,"LONGITUDE":-74.66572843484099,"STATION":"Lake Hopatcong","RAIL_LINE":"Montclair-Boonton Line/M&E","MUN_LABEL":"Roxbury Township","ATIS_ID":"RAIL0067","AMTRAK":"N"},"geometry":{"type":"Point","coordinates":[-74.66573010624734,40.90434203019902]}},{"type":"Feature","properties":{"OBJECTID":68,"COUNTY":"MORRIS","LATITUDE":40.88342280051848,"LONGITUDE":-74.55580534373706,"STATION":"Dover","RAIL_LINE":"Montclair-Boonton Line/M&E","MUN_LABEL":"Dover Town","ATIS_ID":"RAIL0035","AMTRAK":"N"},"geometry":{"type":"Point","coordinates":[-74.55580697868432,40.88343107068999]}},{"type":"Feature","properties":{"OBJECTID":69,"COUNTY":"MORRIS","LATITUDE":40.88389579809667,"LONGITUDE":-74.48151075971231,"STATION":"Denville","RAIL_LINE":"Montclair-Boonton Line/M&E","MUN_LABEL":"Denville Township","ATIS_ID":"RAIL0034","AMTRAK":"N"},"geometry":{"type":"Point","coordinates":[-74.48151237092551,40.8839040710333]}},{"type":"Feature","properties":{"OBJECTID":70,"COUNTY":"MORRIS","LATITUDE":40.875868923850206,"LONGITUDE":-74.48192616565518,"STATION":"Mount Tabor","RAIL_LINE":"Morristown Line/M&E","MUN_LABEL":"Denville Township","ATIS_ID":"RAIL0094","AMTRAK":"N"},"geometry":{"type":"Point","coordinates":[-74.48192777650077,40.87587719520904]}},{"type":"Feature","properties":{"OBJECTID":71,"COUNTY":"MORRIS","LATITUDE":40.8287181621684,"LONGITUDE":-74.4781998681617,"STATION":"Morris Plains","RAIL_LINE":"Morristown Line/M&E","MUN_LABEL":"Morris Plains Borough","ATIS_ID":"RAIL0091","AMTRAK":"N"},"geometry":{"type":"Point","coordinates":[-74.47820147488008,40.82872642447408]}},{"type":"Feature","properties":{"OBJECTID":72,"COUNTY":"MORRIS","LATITUDE":40.79721753899865,"LONGITUDE":-74.47415602633062,"STATION":"Morristown","RAIL_LINE":"Morristown Line/M&E","MUN_LABEL":"Morristown Town","ATIS_ID":"RAIL0092","AMTRAK":"N"},"geometry":{"type":"Point","coordinates":[-74.47415762979954,40.79722579530547]}},{"type":"Feature","properties":{"OBJECTID":73,"COUNTY":"MORRIS","LATITUDE":40.779025643076075,"LONGITUDE":-74.44340402507174,"STATION":"Convent Station","RAIL_LINE":"Morristown Line/M&E","MUN_LABEL":"Morris Township","ATIS_ID":"RAIL0030","AMTRAK":"N"},"geometry":{"type":"Point","coordinates":[-74.4434056175815,40.779033896933306]}},{"type":"Feature","properties":{"OBJECTID":74,"COUNTY":"MORRIS","LATITUDE":40.757072405029476,"LONGITUDE":-74.41512987912563,"STATION":"Madison","RAIL_LINE":"Morristown Line/M&E","MUN_LABEL":"Madison Borough","ATIS_ID":"RAIL0077","AMTRAK":"N"},"geometry":{"type":"Point","coordinates":[-74.41513146123866,40.75708065560979]}},{"type":"Feature","properties":{"OBJECTID":75,"COUNTY":"MORRIS","LATITUDE":40.74019221805995,"LONGITUDE":-74.38496296118392,"STATION":"Chatham","RAIL_LINE":"Morristown Line/M&E","MUN_LABEL":"Chatham Borough","ATIS_ID":"RAIL0027","AMTRAK":"N"},"geometry":{"type":"Point","coordinates":[-74.38496453261128,40.74020046641792]}},{"type":"Feature","properties":{"OBJECTID":76,"COUNTY":"MORRIS","LATITUDE":40.88596498161126,"LONGITUDE":-74.43357817433488,"STATION":"Mountain Lakes","RAIL_LINE":"Montclair-Boonton Line/M&E","MUN_LABEL":"Mountain Lakes Borough","ATIS_ID":"RAIL0096","AMTRAK":"N"},"geometry":{"type":"Point","coordinates":[-74.43357977034104,40.88597325667117]}},{"type":"Feature","properties":{"OBJECTID":77,"COUNTY":"MORRIS","LATITUDE":40.903383771195095,"LONGITUDE":-74.40773043260897,"STATION":"Boonton","RAIL_LINE":"Montclair-Boonton Line/M&E","MUN_LABEL":"Boonton Town","ATIS_ID":"RAIL0020","AMTRAK":"N"},"geometry":{"type":"Point","coordinates":[-74.40773202142756,40.90339205057283]}},{"type":"Feature","properties":{"OBJECTID":78,"COUNTY":"MORRIS","LATITUDE":40.922849611414414,"LONGITUDE":-74.34377145793782,"STATION":"Towaco","RAIL_LINE":"Montclair-Boonton Line/M&E","MUN_LABEL":"Montville Township","ATIS_ID":"RAIL0147","AMTRAK":"N"},"geometry":{"type":"Point","coordinates":[-74.34377302749154,40.92285789687072]}},{"type":"Feature","properties":{"OBJECTID":79,"COUNTY":"MORRIS","LATITUDE":40.92414436871386,"LONGITUDE":-74.30182462751159,"STATION":"Lincoln Park","RAIL_LINE":"Montclair-Boonton Line/M&E","MUN_LABEL":"Lincoln Park Borough","ATIS_ID":"RAIL0069","AMTRAK":"N"},"geometry":{"type":"Point","coordinates":[-74.30182618371255,40.92415265592107]}},{"type":"Feature","properties":{"OBJECTID":80,"COUNTY":"PASSAIC","LATITUDE":40.913978149117725,"LONGITUDE":-74.26780523368419,"STATION":"Mountain View-Wayne","RAIL_LINE":"Montclair-Boonton Line/M&E","MUN_LABEL":"Wayne Township","ATIS_ID":"RAIL0098","AMTRAK":"N"},"geometry":{"type":"Point","coordinates":[-74.26780677835886,40.91398643555927]}},{"type":"Feature","properties":{"OBJECTID":81,"COUNTY":"PASSAIC","LATITUDE":40.88067433102495,"LONGITUDE":-74.23537061029442,"STATION":"Little Falls","RAIL_LINE":"Montclair-Boonton Line/M&E","MUN_LABEL":"Little Falls Township","ATIS_ID":"RAIL0072","AMTRAK":"N"},"geometry":{"type":"Point","coordinates":[-74.2353721425213,40.880682612132816]}},{"type":"Feature","properties":{"OBJECTID":82,"COUNTY":"ESSEX","LATITUDE":40.85754114377783,"LONGITUDE":-74.20248920482808,"STATION":"Montclair Heights","RAIL_LINE":"Montclair-Boonton Line/M&E","MUN_LABEL":"Montclair Township","ATIS_ID":"RAIL0089","AMTRAK":"N"},"geometry":{"type":"Point","coordinates":[-74.202490725098,40.85754942154317]}},{"type":"Feature","properties":{"OBJECTID":83,"COUNTY":"ESSEX","LATITUDE":40.84872386239993,"LONGITUDE":-74.20530360423739,"STATION":"Mountain Avenue","RAIL_LINE":"Montclair-Boonton Line/M&E","MUN_LABEL":"Montclair Township","ATIS_ID":"RAIL0095","AMTRAK":"N"},"geometry":{"type":"Point","coordinates":[-74.2053051248657,40.848732138345184]}},{"type":"Feature","properties":{"OBJECTID":84,"COUNTY":"ESSEX","LATITUDE":40.84201604032343,"LONGITUDE":-74.20935872549094,"STATION":"Upper Montclair","RAIL_LINE":"Montclair-Boonton Line/M&E","MUN_LABEL":"Montclair Township","ATIS_ID":"RAIL0150","AMTRAK":"N"},"geometry":{"type":"Point","coordinates":[-74.20936024700488,40.84202431481587]}},{"type":"Feature","properties":{"OBJECTID":85,"COUNTY":"ESSEX","LATITUDE":40.82952022174276,"LONGITUDE":-74.20693083845366,"STATION":"Watchung Avenue","RAIL_LINE":"Montclair-Boonton Line/M&E","MUN_LABEL":"Montclair Township","ATIS_ID":"RAIL0153","AMTRAK":"N"},"geometry":{"type":"Point","coordinates":[-74.20693235842144,40.82952849388253]}},{"type":"Feature","properties":{"OBJECTID":86,"COUNTY":"ESSEX","LATITUDE":40.8172442054409,"LONGITUDE":-74.20962287664058,"STATION":"Walnut Street","RAIL_LINE":"Montclair-Boonton Line/M&E","MUN_LABEL":"Montclair Township","ATIS_ID":"RAIL0152","AMTRAK":"N"},"geometry":{"type":"Point","coordinates":[-74.20962439671557,40.81725247508848]}},{"type":"Feature","properties":{"OBJECTID":87,"COUNTY":"ESSEX","LATITUDE":40.808178555028576,"LONGITUDE":-74.20867847086355,"STATION":"Bay Street-Montclair","RAIL_LINE":"Montclair-Boonton Line/M&E","MUN_LABEL":"Montclair Township","ATIS_ID":"RAIL0014","AMTRAK":"N"},"geometry":{"type":"Point","coordinates":[-74.20867999007913,40.808186822939284]}},{"type":"Feature","properties":{"OBJECTID":88,"COUNTY":"ESSEX","LATITUDE":40.8005918119534,"LONGITUDE":-74.20464545662267,"STATION":"Glen Ridge","RAIL_LINE":"Montclair-Boonton Line/M&E","MUN_LABEL":"Glen Ridge Borough","ATIS_ID":"RAIL0050","AMTRAK":"N"},"geometry":{"type":"Point","coordinates":[-74.20464697408133,40.8006000785252]}},{"type":"Feature","properties":{"OBJECTID":89,"COUNTY":"ESSEX","LATITUDE":40.79270827867206,"LONGITUDE":-74.20006477152776,"STATION":"Bloomfield","RAIL_LINE":"Montclair-Boonton Line/M&E","MUN_LABEL":"Bloomfield Township","ATIS_ID":"RAIL0019","AMTRAK":"N"},"geometry":{"type":"Point","coordinates":[-74.20006628703632,40.792716543865986]}},{"type":"Feature","properties":{"OBJECTID":90,"COUNTY":"ESSEX","LATITUDE":40.7827123118245,"LONGITUDE":-74.19844326033247,"STATION":"Watsessing","RAIL_LINE":"Montclair-Boonton Line/M&E","MUN_LABEL":"Bloomfield Township","ATIS_ID":"RAIL0154","AMTRAK":"N"},"geometry":{"type":"Point","coordinates":[-74.19844477470893,40.78272057512249]}},{"type":"Feature","properties":{"OBJECTID":91,"COUNTY":"OCEAN","LATITUDE":40.077188941562554,"LONGITUDE":-74.0461811590221,"STATION":"Bay Head","RAIL_LINE":"North Jersey Coast Line","MUN_LABEL":"Bay Head Borough","ATIS_ID":"RAIL0013","AMTRAK":"N"},"geometry":{"type":"Point","coordinates":[-74.0461825824908,40.077197071030156]}},{"type":"Feature","properties":{"OBJECTID":92,"COUNTY":"PHILADELPHIA, PA","LATITUDE":39.956553509125015,"LONGITUDE":-75.18142027174854,"STATION":"30th Street Station","RAIL_LINE":"Atlantic City Line","MUN_LABEL":"Philadelphia, PA","ATIS_ID":"RAIL0001","AMTRAK":"Y"},"geometry":{"type":"Point","coordinates":[-75.1814220485945,39.95656157454188]}},{"type":"Feature","properties":{"OBJECTID":93,"COUNTY":"CAMDEN","LATITUDE":39.9284497765662,"LONGITUDE":-75.04165866568265,"STATION":"Cherry Hill","RAIL_LINE":"Atlantic City Line","MUN_LABEL":"Cherry Hill Township","ATIS_ID":"RAIL0028","AMTRAK":"N"},"geometry":{"type":"Point","coordinates":[-75.04166039656099,39.928457841417355]}},{"type":"Feature","properties":{"OBJECTID":94,"COUNTY":"CAMDEN","LATITUDE":39.83375859562247,"LONGITUDE":-75.00023658707352,"STATION":"Lindenwold","RAIL_LINE":"Atlantic City Line","MUN_LABEL":"Lindenwold Borough","ATIS_ID":"RAIL0071","AMTRAK":"N"},"geometry":{"type":"Point","coordinates":[-75.00023829913442,39.83376664310298]}},{"type":"Feature","properties":{"OBJECTID":95,"COUNTY":"CAMDEN","LATITUDE":39.78362151999066,"LONGITUDE":-74.90770641296436,"STATION":"Atco","RAIL_LINE":"Atlantic City Line","MUN_LABEL":"Waterford Township","ATIS_ID":"RAIL0009","AMTRAK":"N"},"geometry":{"type":"Point","coordinates":[-74.90770809272864,39.78362956075968]}},{"type":"Feature","properties":{"OBJECTID":96,"COUNTY":"ATLANTIC","LATITUDE":39.63167271052173,"LONGITUDE":-74.7994963263347,"STATION":"Hammonton","RAIL_LINE":"Atlantic City Line","MUN_LABEL":"Hammonton Town","ATIS_ID":"RAIL0055","AMTRAK":"N"},"geometry":{"type":"Point","coordinates":[-74.79949796284593,39.63168072471187]}},{"type":"Feature","properties":{"OBJECTID":97,"COUNTY":"ATLANTIC","LATITUDE":39.52654651280973,"LONGITUDE":-74.64815394387472,"STATION":"Egg Harbor City","RAIL_LINE":"Atlantic City Line","MUN_LABEL":"Egg Harbor City","ATIS_ID":"RAIL0039","AMTRAK":"N"},"geometry":{"type":"Point","coordinates":[-74.64815552634136,39.526554511188806]}},{"type":"Feature","properties":{"OBJECTID":98,"COUNTY":"ATLANTIC","LATITUDE":39.424324119639856,"LONGITUDE":-74.50209035551099,"STATION":"Absecon","RAIL_LINE":"Atlantic City Line","MUN_LABEL":"Absecon City","ATIS_ID":"RAIL0002","AMTRAK":"N"},"geometry":{"type":"Point","coordinates":[-74.50209188584405,39.42433210249669]}},{"type":"Feature","properties":{"OBJECTID":99,"COUNTY":"ATLANTIC","LATITUDE":39.363304002887126,"LONGITUDE":-74.44147599982765,"STATION":"Atlantic City","RAIL_LINE":"Atlantic City Line","MUN_LABEL":"Atlantic City","ATIS_ID":"RAIL0010","AMTRAK":"N"},"geometry":{"type":"Point","coordinates":[-74.44147750748255,39.36331197551215]}},{"type":"Feature","properties":{"OBJECTID":100,"COUNTY":"ROCKLAND, NY","LATITUDE":41.11353988200905,"LONGITUDE":-74.15343761848926,"STATION":"Suffern","RAIL_LINE":"Main/Bergen Line","MUN_LABEL":"Ramapo Town, NY","ATIS_ID":"RAIL0144","AMTRAK":"N"},"geometry":{"type":"Point","coordinates":[-74.15343913889528,41.11354821130168]}},{"type":"Feature","properties":{"OBJECTID":101,"COUNTY":"BERGEN","LATITUDE":41.09437518860832,"LONGITUDE":-74.14660861781108,"STATION":"Mahwah","RAIL_LINE":"Main/Bergen Line","MUN_LABEL":"Mahwah Township","ATIS_ID":"RAIL0078","AMTRAK":"N"},"geometry":{"type":"Point","coordinates":[-74.14661013483128,41.09438351442831]}},{"type":"Feature","properties":{"OBJECTID":102,"COUNTY":"BERGEN","LATITUDE":41.05690562483496,"LONGITUDE":-74.1420501806494,"STATION":"Ramsey","RAIL_LINE":"Main/Bergen Line","MUN_LABEL":"Ramsey Borough","ATIS_ID":"RAIL0128","AMTRAK":"N"},"geometry":{"type":"Point","coordinates":[-74.14205169387661,41.05691394354638]}},{"type":"Feature","properties":{"OBJECTID":103,"COUNTY":"BERGEN","LATITUDE":41.03093672982306,"LONGITUDE":-74.13098524984913,"STATION":"Allendale","RAIL_LINE":"Main/Bergen Line","MUN_LABEL":"Allendale Borough","ATIS_ID":"RAIL0003","AMTRAK":"N"},"geometry":{"type":"Point","coordinates":[-74.13098675791487,41.03094504388466]}},{"type":"Feature","properties":{"OBJECTID":104,"COUNTY":"BERGEN","LATITUDE":41.01279661068241,"LONGITUDE":-74.12341963526639,"STATION":"Waldwick","RAIL_LINE":"Main/Bergen Line","MUN_LABEL":"Waldwick Borough","ATIS_ID":"RAIL0151","AMTRAK":"N"},"geometry":{"type":"Point","coordinates":[-74.12342113978129,41.012804921487714]}},{"type":"Feature","properties":{"OBJECTID":105,"COUNTY":"BERGEN","LATITUDE":40.99736774607725,"LONGITUDE":-74.11352200844223,"STATION":"Ho-Ho-Kus","RAIL_LINE":"Main/Bergen Line","MUN_LABEL":"Ho-Ho-Kus Borough","ATIS_ID":"RAIL0064","AMTRAK":"N"},"geometry":{"type":"Point","coordinates":[-74.11352350882777,40.99737605423437]}},{"type":"Feature","properties":{"OBJECTID":106,"COUNTY":"BERGEN","LATITUDE":40.980672213751276,"LONGITUDE":-74.12056784068251,"STATION":"Ridgewood","RAIL_LINE":"Main/Bergen Line","MUN_LABEL":"Ridgewood Village","ATIS_ID":"RAIL0131","AMTRAK":"N"},"geometry":{"type":"Point","coordinates":[-74.12056934229554,40.980680518411035]}},{"type":"Feature","properties":{"OBJECTID":107,"COUNTY":"BERGEN","LATITUDE":40.962245128131904,"LONGITUDE":-74.13344979082673,"STATION":"Glen Rock-Main","RAIL_LINE":"Main/Bergen Line","MUN_LABEL":"Glen Rock Borough","ATIS_ID":"RAIL0052","AMTRAK":"N"},"geometry":{"type":"Point","coordinates":[-74.13345129543181,40.96225342874892]}},{"type":"Feature","properties":{"OBJECTID":108,"COUNTY":"PASSAIC","LATITUDE":40.94253722297497,"LONGITUDE":-74.15241425409843,"STATION":"Hawthorne","RAIL_LINE":"Main/Bergen Line","MUN_LABEL":"Hawthorne Borough","ATIS_ID":"RAIL0058","AMTRAK":"N"},"geometry":{"type":"Point","coordinates":[-74.15241576356593,40.94254551908247]}},{"type":"Feature","properties":{"OBJECTID":109,"COUNTY":"PASSAIC","LATITUDE":40.91492573440458,"LONGITUDE":-74.16732457526784,"STATION":"Paterson","RAIL_LINE":"Main/Bergen Line","MUN_LABEL":"Paterson City","ATIS_ID":"RAIL0116","AMTRAK":"N"},"geometry":{"type":"Point","coordinates":[-74.16732608780977,40.91493402460514]}},{"type":"Feature","properties":{"OBJECTID":110,"COUNTY":"PASSAIC","LATITUDE":40.867988058185354,"LONGITUDE":-74.15317284936016,"STATION":"Clifton","RAIL_LINE":"Main/Bergen Line","MUN_LABEL":"Clifton City","ATIS_ID":"RAIL0029","AMTRAK":"N"},"geometry":{"type":"Point","coordinates":[-74.15317435447686,40.86799633973776]}},{"type":"Feature","properties":{"OBJECTID":111,"COUNTY":"PASSAIC","LATITUDE":40.8494332300141,"LONGITUDE":-74.13393293854499,"STATION":"Passaic","RAIL_LINE":"Main/Bergen Line","MUN_LABEL":"Passaic City","ATIS_ID":"RAIL0115","AMTRAK":"N"},"geometry":{"type":"Point","coordinates":[-74.13393443635837,40.84944150862752]}},{"type":"Feature","properties":{"OBJECTID":112,"COUNTY":"PASSAIC","LATITUDE":40.83136648146709,"LONGITUDE":-74.13125718256443,"STATION":"Delawanna","RAIL_LINE":"Main/Bergen Line","MUN_LABEL":"Clifton City","ATIS_ID":"RAIL0033","AMTRAK":"N"},"geometry":{"type":"Point","coordinates":[-74.13125867841237,40.83137475664822]}},{"type":"Feature","properties":{"OBJECTID":113,"COUNTY":"BERGEN","LATITUDE":40.81647080584759,"LONGITUDE":-74.12423751575727,"STATION":"Lyndhurst","RAIL_LINE":"Main/Bergen Line","MUN_LABEL":"Lyndhurst Township","ATIS_ID":"RAIL0075","AMTRAK":"N"},"geometry":{"type":"Point","coordinates":[-74.12423900844418,40.816479078367784]}},{"type":"Feature","properties":{"OBJECTID":114,"COUNTY":"BERGEN","LATITUDE":40.96133087915428,"LONGITUDE":-74.12929160646723,"STATION":"Glen Rock-Boro Hall","RAIL_LINE":"Main/Bergen Line","MUN_LABEL":"Glen Rock Borough","ATIS_ID":"RAIL0051","AMTRAK":"N"},"geometry":{"type":"Point","coordinates":[-74.12929310968268,40.96133917974095]}},{"type":"Feature","properties":{"OBJECTID":115,"COUNTY":"BERGEN","LATITUDE":40.93991976548321,"LONGITUDE":-74.1216063312619,"STATION":"Radburn","RAIL_LINE":"Main/Bergen Line","MUN_LABEL":"Fair Lawn Borough","ATIS_ID":"RAIL0126","AMTRAK":"N"},"geometry":{"type":"Point","coordinates":[-74.12160783069218,40.93992806217415]}},{"type":"Feature","properties":{"OBJECTID":116,"COUNTY":"BERGEN","LATITUDE":40.922510541287956,"LONGITUDE":-74.11523142768044,"STATION":"Broadway","RAIL_LINE":"Main/Bergen Line","MUN_LABEL":"Fair Lawn Borough","ATIS_ID":"RAIL0025","AMTRAK":"N"},"geometry":{"type":"Point","coordinates":[-74.11523292399434,40.92251883481382]}},{"type":"Feature","properties":{"OBJECTID":117,"COUNTY":"BERGEN","LATITUDE":40.8849392705558,"LONGITUDE":-74.10268495679428,"STATION":"Plauderville","RAIL_LINE":"Main/Bergen Line","MUN_LABEL":"Garfield City","ATIS_ID":"RAIL0121","AMTRAK":"N"},"geometry":{"type":"Point","coordinates":[-74.1026864467761,40.88494755720221]}},{"type":"Feature","properties":{"OBJECTID":118,"COUNTY":"BERGEN","LATITUDE":40.866669738091815,"LONGITUDE":-74.10555970997487,"STATION":"Garfield","RAIL_LINE":"Main/Bergen Line","MUN_LABEL":"Garfield City","ATIS_ID":"RAIL0046","AMTRAK":"N"},"geometry":{"type":"Point","coordinates":[-74.10556119975617,40.8666780210727]}},{"type":"Feature","properties":{"OBJECTID":119,"COUNTY":"BERGEN","LATITUDE":40.82829801763629,"LONGITUDE":-74.10057919120771,"STATION":"Rutherford","RAIL_LINE":"Main/Bergen Line","MUN_LABEL":"Rutherford Borough","ATIS_ID":"RAIL0134","AMTRAK":"N"},"geometry":{"type":"Point","coordinates":[-74.10058067704124,40.828306293302695]}},{"type":"Feature","properties":{"OBJECTID":120,"COUNTY":"ROCKLAND, NY","LATITUDE":41.111973833134414,"LONGITUDE":-74.04399276141137,"STATION":"Spring Valley","RAIL_LINE":"Pascack Valley Line","MUN_LABEL":"Ramapo Town, NY","ATIS_ID":"RAIL0142","AMTRAK":"N"},"geometry":{"type":"Point","coordinates":[-74.04399424658308,41.11198216601741]}},{"type":"Feature","properties":{"OBJECTID":121,"COUNTY":"ROCKLAND, NY","LATITUDE":41.09000116240997,"LONGITUDE":-74.01471197438514,"STATION":"Nanuet","RAIL_LINE":"Pascack Valley Line","MUN_LABEL":"Clarkstown Town, NY","ATIS_ID":"RAIL0100","AMTRAK":"N"},"geometry":{"type":"Point","coordinates":[-74.01471344879229,41.09000949206824]}},{"type":"Feature","properties":{"OBJECTID":122,"COUNTY":"ROCKLAND, NY","LATITUDE":41.05819000316337,"LONGITUDE":-74.02231200007489,"STATION":"Pearl River","RAIL_LINE":"Pascack Valley Line","MUN_LABEL":"Orangetown, NY","ATIS_ID":"RAIL0118","AMTRAK":"N"},"geometry":{"type":"Point","coordinates":[-74.02231347495415,41.05819832637566]}},{"type":"Feature","properties":{"OBJECTID":123,"COUNTY":"BERGEN","LATITUDE":41.04088179031453,"LONGITUDE":-74.02914788694976,"STATION":"Montvale","RAIL_LINE":"Pascack Valley Line","MUN_LABEL":"Montvale Borough","ATIS_ID":"RAIL0090","AMTRAK":"N"},"geometry":{"type":"Point","coordinates":[-74.02914936295362,41.04089010992202]}},{"type":"Feature","properties":{"OBJECTID":124,"COUNTY":"BERGEN","LATITUDE":41.032313174899976,"LONGITUDE":-74.03615914152319,"STATION":"Park Ridge","RAIL_LINE":"Pascack Valley Line","MUN_LABEL":"Park Ridge Borough","ATIS_ID":"RAIL0114","AMTRAK":"N"},"geometry":{"type":"Point","coordinates":[-74.036160619248,41.03232149259394]}},{"type":"Feature","properties":{"OBJECTID":125,"COUNTY":"BERGEN","LATITUDE":41.00240676221487,"LONGITUDE":-74.04102652874585,"STATION":"Hillsdale","RAIL_LINE":"Pascack Valley Line","MUN_LABEL":"Hillsdale Borough","ATIS_ID":"RAIL0062","AMTRAK":"N"},"geometry":{"type":"Point","coordinates":[-74.04102800618674,41.00241507392178]}},{"type":"Feature","properties":{"OBJECTID":126,"COUNTY":"BERGEN","LATITUDE":40.9908622061973,"LONGITUDE":-74.03272031183621,"STATION":"Westwood","RAIL_LINE":"Pascack Valley Line","MUN_LABEL":"Westwood Borough","ATIS_ID":"RAIL0156","AMTRAK":"N"},"geometry":{"type":"Point","coordinates":[-74.03272178590048,40.99087051595231]}},{"type":"Feature","properties":{"OBJECTID":127,"COUNTY":"BERGEN","LATITUDE":40.97508058670046,"LONGITUDE":-74.02746033132357,"STATION":"Emerson","RAIL_LINE":"Pascack Valley Line","MUN_LABEL":"Emerson Borough","ATIS_ID":"RAIL0042","AMTRAK":"N"},"geometry":{"type":"Point","coordinates":[-74.0274618027285,40.97508889357025]}},{"type":"Feature","properties":{"OBJECTID":128,"COUNTY":"BERGEN","LATITUDE":40.95347664574664,"LONGITUDE":-74.02997955086185,"STATION":"Oradell","RAIL_LINE":"Pascack Valley Line","MUN_LABEL":"Oradell Borough","ATIS_ID":"RAIL0111","AMTRAK":"N"},"geometry":{"type":"Point","coordinates":[-74.02998102174597,40.95348494832108]}},{"type":"Feature","properties":{"OBJECTID":129,"COUNTY":"BERGEN","LATITUDE":40.935146943295145,"LONGITUDE":-74.02913851947429,"STATION":"River Edge","RAIL_LINE":"Pascack Valley Line","MUN_LABEL":"River Edge Borough","ATIS_ID":"RAIL0132","AMTRAK":"N"},"geometry":{"type":"Point","coordinates":[-74.02913998896233,40.9351552423287]}},{"type":"Feature","properties":{"OBJECTID":130,"COUNTY":"BERGEN","LATITUDE":40.91084362813796,"LONGITUDE":-74.03504972002135,"STATION":"New Bridge Landing","RAIL_LINE":"Pascack Valley Line","MUN_LABEL":"River Edge Borough","ATIS_ID":"RAIL0110","AMTRAK":"N"},"geometry":{"type":"Point","coordinates":[-74.03505118991318,40.91085192222599]}},{"type":"Feature","properties":{"OBJECTID":131,"COUNTY":"BERGEN","LATITUDE":40.89445719077552,"LONGITUDE":-74.04377698786243,"STATION":"Anderson Street-Hackensack","RAIL_LINE":"Pascack Valley Line","MUN_LABEL":"Hackensack City","ATIS_ID":"RAIL0005","AMTRAK":"N"},"geometry":{"type":"Point","coordinates":[-74.04377845954724,40.894465481360164]}},{"type":"Feature","properties":{"OBJECTID":132,"COUNTY":"BERGEN","LATITUDE":40.87899602709434,"LONGITUDE":-74.0518832967005,"STATION":"Essex Street-Hackensack","RAIL_LINE":"Pascack Valley Line","MUN_LABEL":"Hackensack City","ATIS_ID":"RAIL0043","AMTRAK":"N"},"geometry":{"type":"Point","coordinates":[-74.05188477003607,40.87900431437685]}},{"type":"Feature","properties":{"OBJECTID":133,"COUNTY":"BERGEN","LATITUDE":40.864888224000595,"LONGITUDE":-74.06265447370126,"STATION":"Teterboro-Williams Ave","RAIL_LINE":"Pascack Valley Line","MUN_LABEL":"Hasbrouck Heights Borough","ATIS_ID":"RAIL0146","AMTRAK":"N"},"geometry":{"type":"Point","coordinates":[-74.06265594962463,40.86489650814996]}},{"type":"Feature","properties":{"OBJECTID":134,"COUNTY":"BERGEN","LATITUDE":40.84386852876993,"LONGITUDE":-74.07879475274478,"STATION":"Wood-Ridge","RAIL_LINE":"Pascack Valley Line","MUN_LABEL":"Wood-Ridge Borough","ATIS_ID":"RAIL0160","AMTRAK":"N"},"geometry":{"type":"Point","coordinates":[-74.07879623255276,40.84387680824628]}},{"type":"Feature","properties":{"OBJECTID":135,"COUNTY":"MIDDLESEX","LATITUDE":40.56857548902906,"LONGITUDE":-74.32933425665415,"STATION":"Metropark","RAIL_LINE":"Northeast Corridor","MUN_LABEL":"Woodbridge Township","ATIS_ID":"RAIL0083","AMTRAK":"Y"},"geometry":{"type":"Point","coordinates":[-74.32933579979259,40.568583705739314]}},{"type":"Feature","properties":{"OBJECTID":136,"COUNTY":"MIDDLESEX","LATITUDE":40.540772544104215,"LONGITUDE":-74.36041591899463,"STATION":"Metuchen","RAIL_LINE":"Northeast Corridor","MUN_LABEL":"Metuchen Borough","ATIS_ID":"RAIL0084","AMTRAK":"N"},"geometry":{"type":"Point","coordinates":[-74.36041747036442,40.54078075425208]}},{"type":"Feature","properties":{"OBJECTID":137,"COUNTY":"MIDDLESEX","LATITUDE":40.51914916502146,"LONGITUDE":-74.41097231004369,"STATION":"Edison","RAIL_LINE":"Northeast Corridor","MUN_LABEL":"Edison Township","ATIS_ID":"RAIL0038","AMTRAK":"N"},"geometry":{"type":"Point","coordinates":[-74.41097387623306,40.519157369127306]}},{"type":"Feature","properties":{"OBJECTID":138,"COUNTY":"MIDDLESEX","LATITUDE":40.4973205661654,"LONGITUDE":-74.44565297378323,"STATION":"New Brunswick","RAIL_LINE":"Northeast Corridor","MUN_LABEL":"New Brunswick City","ATIS_ID":"RAIL0103","AMTRAK":"Y"},"geometry":{"type":"Point","coordinates":[-74.44565454970784,40.49732876474901]}},{"type":"Feature","properties":{"OBJECTID":139,"COUNTY":"MIDDLESEX","LATITUDE":40.476903653752395,"LONGITUDE":-74.46732926521658,"STATION":"Jersey Avenue","RAIL_LINE":"Northeast Corridor","MUN_LABEL":"New Brunswick City","ATIS_ID":"RAIL0065","AMTRAK":"N"},"geometry":{"type":"Point","coordinates":[-74.4673308468113,40.47691184755094]}},{"type":"Feature","properties":{"OBJECTID":140,"COUNTY":"MERCER","LATITUDE":40.31631584694438,"LONGITUDE":-74.62375104017737,"STATION":"Princeton Jct.","RAIL_LINE":"Northeast Corridor","MUN_LABEL":"West Windsor Township","ATIS_ID":"RAIL0125","AMTRAK":"Y"},"geometry":{"type":"Point","coordinates":[-74.62375266184249,40.31632400354212]}},{"type":"Feature","properties":{"OBJECTID":141,"COUNTY":"MERCER","LATITUDE":40.34213264105876,"LONGITUDE":-74.65878146063586,"STATION":"Princeton","RAIL_LINE":"Northeast Corridor","MUN_LABEL":"Princeton","ATIS_ID":"RAIL0124","AMTRAK":"N"},"geometry":{"type":"Point","coordinates":[-74.65878309502251,40.3421408015008]}},{"type":"Feature","properties":{"OBJECTID":142,"COUNTY":"MERCER","LATITUDE":40.21851526159105,"LONGITUDE":-74.75391804287692,"STATION":"Trenton","RAIL_LINE":"Northeast Corridor","MUN_LABEL":"Trenton City","ATIS_ID":"RAIL0148","AMTRAK":"Y"},"geometry":{"type":"Point","coordinates":[-74.75391970000913,40.21852339423307]}},{"type":"Feature","properties":{"OBJECTID":143,"COUNTY":"MERCER","LATITUDE":40.255307909748936,"LONGITUDE":-74.7041206897544,"STATION":"Hamilton","RAIL_LINE":"Northeast Corridor","MUN_LABEL":"Hamilton Township","ATIS_ID":"RAIL0163","AMTRAK":"N"},"geometry":{"type":"Point","coordinates":[-74.70412233328656,40.25531605143801]}},{"type":"Feature","properties":{"OBJECTID":144,"COUNTY":"MONMOUTH","LATITUDE":40.12062168193694,"LONGITUDE":-74.04764352768068,"STATION":"Manasquan","RAIL_LINE":"North Jersey Coast Line","MUN_LABEL":"Manasquan Borough","ATIS_ID":"RAIL0079","AMTRAK":"N"},"geometry":{"type":"Point","coordinates":[-74.04764495416289,40.12062981999411]}},{"type":"Feature","properties":{"OBJECTID":145,"COUNTY":"BERGEN","LATITUDE":40.81009482868493,"LONGITUDE":-74.11729321808936,"STATION":"Kingsland","RAIL_LINE":"Main/Bergen Line","MUN_LABEL":"Lyndhurst Township","ATIS_ID":"RAIL0066","AMTRAK":"N"},"geometry":{"type":"Point","coordinates":[-74.11729470816188,40.81010310020493]}},{"type":"Feature","properties":{"OBJECTID":146,"COUNTY":"UNION","LATITUDE":40.667106116857006,"LONGITUDE":-74.26640195948431,"STATION":"Roselle Park","RAIL_LINE":"Raritan Valley Line","MUN_LABEL":"Roselle Park Borough","ATIS_ID":"RAIL0031","AMTRAK":"N"},"geometry":{"type":"Point","coordinates":[-74.26640348852428,40.66711435512411]}},{"type":"Feature","properties":{"OBJECTID":147,"COUNTY":"ORANGE, NY","LATITUDE":41.43708193051812,"LONGITUDE":-74.10186961368103,"STATION":"Salisbury Mills-Cornwall","RAIL_LINE":"Port Jervis Line","MUN_LABEL":"Corwall Town, NY","ATIS_ID":"RAIL0135","AMTRAK":"N"},"geometry":{"type":"Point","coordinates":[-74.10187113784546,41.437090324123375]}},{"type":"Feature","properties":{"OBJECTID":148,"COUNTY":"ORANGE, NY","LATITUDE":41.45103012952115,"LONGITUDE":-74.26639558841799,"STATION":"Campbell Hall","RAIL_LINE":"Port Jervis Line","MUN_LABEL":"Hamptonburgh Town, NY","ATIS_ID":"RAIL0026","AMTRAK":"N"},"geometry":{"type":"Point","coordinates":[-74.26639716641064,41.45103851988372]}},{"type":"Feature","properties":{"OBJECTID":149,"COUNTY":"ORANGE, NY","LATITUDE":41.45733926767667,"LONGITUDE":-74.3703570826965,"STATION":"Middletown","RAIL_LINE":"Port Jervis Line","MUN_LABEL":"Wallkill Town, NY","ATIS_ID":"RAIL0086","AMTRAK":"N"},"geometry":{"type":"Point","coordinates":[-74.37035869452792,41.45734765548613]}},{"type":"Feature","properties":{"OBJECTID":150,"COUNTY":"ORANGE, NY","LATITUDE":41.47176149041579,"LONGITUDE":-74.5292250121537,"STATION":"Otisville","RAIL_LINE":"Port Jervis Line","MUN_LABEL":"Mount Hope Town, NY","ATIS_ID":"RAIL0113","AMTRAK":"N"},"geometry":{"type":"Point","coordinates":[-74.52922667598051,41.4717698752068]}},{"type":"Feature","properties":{"OBJECTID":151,"COUNTY":"ORANGE, NY","LATITUDE":41.374613117885815,"LONGITUDE":-74.69511147838898,"STATION":"Port Jervis","RAIL_LINE":"Port Jervis Line","MUN_LABEL":"Port Jervis City, NY","ATIS_ID":"RAIL0123","AMTRAK":"N"},"geometry":{"type":"Point","coordinates":[-74.6951131892019,41.37462147795954]}},{"type":"Feature","properties":{"OBJECTID":152,"COUNTY":"ROCKLAND, NY","LATITUDE":41.15715264368795,"LONGITUDE":-74.19107014600064,"STATION":"Sloatsburg","RAIL_LINE":"Port Jervis Line","MUN_LABEL":"Ramapo Town, NY","ATIS_ID":"RAIL0137","AMTRAK":"N"},"geometry":{"type":"Point","coordinates":[-74.19107168121113,41.157160980085834]}},{"type":"Feature","properties":{"OBJECTID":153,"COUNTY":"ORANGE, NY","LATITUDE":41.194190129885136,"LONGITUDE":-74.1851051904165,"STATION":"Tuxedo","RAIL_LINE":"Port Jervis Line","MUN_LABEL":"Tuxedo Town, NY","ATIS_ID":"RAIL0149","AMTRAK":"N"},"geometry":{"type":"Point","coordinates":[-74.18510672603226,41.19419847366366]}},{"type":"Feature","properties":{"OBJECTID":154,"COUNTY":"ORANGE, NY","LATITUDE":41.29337582029792,"LONGITUDE":-74.14002028934442,"STATION":"Harriman","RAIL_LINE":"Port Jervis Line","MUN_LABEL":"Woodbury Town, NY","ATIS_ID":"RAIL0057","AMTRAK":"N"},"geometry":{"type":"Point","coordinates":[-74.1400218167062,41.293384184852805]}},{"type":"Feature","properties":{"OBJECTID":155,"COUNTY":"HUNTERDON","LATITUDE":40.64517405977577,"LONGITUDE":-74.87852492578858,"STATION":"Annandale","RAIL_LINE":"Raritan Valley Line","MUN_LABEL":"Clinton Township","ATIS_ID":"RAIL0006","AMTRAK":"N"},"geometry":{"type":"Point","coordinates":[-74.87852664887049,40.64518227181014]}},{"type":"Feature","properties":{"OBJECTID":156,"COUNTY":"BERGEN","LATITUDE":41.075051045258355,"LONGITUDE":-74.14548507197316,"STATION":"Rte 17 Ramsey","RAIL_LINE":"Main/Bergen Line","MUN_LABEL":"Ramsey Borough","ATIS_ID":"RAIL0170","AMTRAK":"N"},"geometry":{"type":"Point","coordinates":[-74.14548658743034,41.07505936736944]}},{"type":"Feature","properties":{"OBJECTID":157,"COUNTY":"UNION","LATITUDE":40.6837694679092,"LONGITUDE":-74.238431673455,"STATION":"Union","RAIL_LINE":"Raritan Valley Line","MUN_LABEL":"Union Township","ATIS_ID":"RAIL0166","AMTRAK":"N"},"geometry":{"type":"Point","coordinates":[-74.23843319456982,40.68377771043133]}},{"type":"Feature","properties":{"OBJECTID":158,"COUNTY":"ESSEX","LATITUDE":40.869783865027195,"LONGITUDE":-74.19743444559425,"STATION":"Montclair St Univ","RAIL_LINE":"Montclair-Boonton Line/M&E","MUN_LABEL":"Little Falls Township","ATIS_ID":"RAIL0165","AMTRAK":"N"},"geometry":{"type":"Point","coordinates":[-74.19743596499937,40.86979214535984]}},{"type":"Feature","properties":{"OBJECTID":159,"COUNTY":"HUDSON","LATITUDE":40.761190685049016,"LONGITUDE":-74.07581813164441,"STATION":"Secaucus Junction Upper Level","RAIL_LINE":"NEC / NJCL / M&E / Main/Bergen","MUN_LABEL":"Secaucus","ATIS_ID":"RAIL0168","AMTRAK":"N"},"geometry":{"type":"Point","coordinates":[-74.07581960544891,40.761198948470614]}},{"type":"Feature","properties":{"OBJECTID":160,"COUNTY":"BERGEN","LATITUDE":41.02107787769264,"LONGITUDE":-74.04077218007293,"STATION":"Woodcliff Lake","RAIL_LINE":"Pascack Valley Line","MUN_LABEL":"Woodcliff Lake Borough","ATIS_ID":"RAIL0159","AMTRAK":"N"},"geometry":{"type":"Point","coordinates":[-74.04077365858436,41.021086193039245]}},{"type":"Feature","properties":{"OBJECTID":161,"COUNTY":"HUDSON","LATITUDE":40.73484500341041,"LONGITUDE":-74.02803900009314,"STATION":"Hoboken Terminal","RAIL_LINE":"Morris & Essex Line","MUN_LABEL":"Hoboken City","ATIS_ID":"RAIL0063","AMTRAK":"N"},"geometry":{"type":"Point","coordinates":[-74.02804045699627,40.73485326335606]}},{"type":"Feature","properties":{"OBJECTID":162,"COUNTY":"PASSAIC","LATITUDE":40.90026454222274,"LONGITUDE":-74.25697425043997,"STATION":"Wayne Route 23 Transit Center","RAIL_LINE":"Montclair-Boonton Line/M&E","MUN_LABEL":"Wayne Township","ATIS_ID":"RAIL0172","AMTRAK":"N"},"geometry":{"type":"Point","coordinates":[-74.25697579079666,40.900272826379194]}},{"type":"Feature","properties":{"OBJECTID":163,"COUNTY":"MORRIS","LATITUDE":40.89658975476148,"LONGITUDE":-74.6327318877674,"STATION":"Mt Arlington","RAIL_LINE":"Montclair-Boonton Line/M&E","MUN_LABEL":"Mount Arlington Borough","ATIS_ID":"RAIL0171","AMTRAK":"N"},"geometry":{"type":"Point","coordinates":[-74.63273354813792,40.89659802471805]}},{"type":"Feature","properties":{"OBJECTID":164,"COUNTY":"BERGEN","LATITUDE":40.813020874752624,"LONGITUDE":-74.07204981357489,"STATION":"Meadowlands Rail Station","RAIL_LINE":"Meadowlands Rail Line","MUN_LABEL":"East Rutherford Borough","ATIS_ID":"RAIL0174","AMTRAK":"N"},"geometry":{"type":"Point","coordinates":[-74.07205128933523,40.81302914844158]}},{"type":"Feature","properties":{"OBJECTID":165,"COUNTY":"CAMDEN","LATITUDE":39.97777010963623,"LONGITUDE":-75.06179234848753,"STATION":"Pennsauken Transit Center","RAIL_LINE":"Atlantic City Line","MUN_LABEL":"Pennsauken Township","ATIS_ID":"RAIL0183","AMTRAK":"N"},"geometry":{"type":"Point","coordinates":[-75.06179408872866,39.977778183565405]}},{"type":"Feature","properties":{"OBJECTID":166,"COUNTY":"HUDSON","LATITUDE":40.761190685049016,"LONGITUDE":-74.07581813164441,"STATION":"Secaucus Junction Lower Level","RAIL_LINE":"NEC / NJCL / M&E / Main&Bergen","MUN_LABEL":"Secaucus Town","ATIS_ID":"RAIL0167","AMTRAK":"N"},"geometry":{"type":"Point","coordinates":[-74.07581960544891,40.761198948470614]}},{"type":"Feature","properties":{"OBJECTID":167,"COUNTY":"HUDSON","LATITUDE":40.72695391328231,"LONGITUDE":-74.03471063962836,"STATION":"Pavonia/Newport","RAIL_LINE":"PATH","MUN_LABEL":"Jersey City","ATIS_ID":"PATH01","AMTRAK":"N"},"geometry":{"type":"Point","coordinates":[-74.03471209818848,40.72696217144806]}},{"type":"Feature","properties":{"OBJECTID":168,"COUNTY":"HUDSON","LATITUDE":40.73544891269838,"LONGITUDE":-74.02881763917112,"STATION":"Hoboken","RAIL_LINE":"PATH","MUN_LABEL":"Hoboken City","ATIS_ID":"PATH02","AMTRAK":"N"},"geometry":{"type":"Point","coordinates":[-74.02881909636025,40.73545717273493]}},{"type":"Feature","properties":{"OBJECTID":169,"COUNTY":"NEW YORK CITY, NY","LATITUDE":40.749129912877315,"LONGITUDE":-73.98821963968683,"STATION":"33rd St.","RAIL_LINE":"PATH","MUN_LABEL":"New York City, NY","ATIS_ID":"PATH03","AMTRAK":"N"},"geometry":{"type":"Point","coordinates":[-73.9882210847052,40.74913817701846]}},{"type":"Feature","properties":{"OBJECTID":170,"COUNTY":"NEW YORK CITY, NY","LATITUDE":40.7428899131545,"LONGITUDE":-73.99279963896875,"STATION":"23rd St.","RAIL_LINE":"PATH","MUN_LABEL":"New York City, NY","ATIS_ID":"PATH04","AMTRAK":"N"},"geometry":{"type":"Point","coordinates":[-73.99280108507537,40.74289817591308]}},{"type":"Feature","properties":{"OBJECTID":171,"COUNTY":"NEW YORK CITY, NY","LATITUDE":40.737369912670424,"LONGITUDE":-73.99682963945052,"STATION":"14th St.","RAIL_LINE":"PATH","MUN_LABEL":"New York City, NY","ATIS_ID":"PATH05","AMTRAK":"N"},"geometry":{"type":"Point","coordinates":[-73.99683108651294,40.73737817420653]}},{"type":"Feature","properties":{"OBJECTID":172,"COUNTY":"NEW YORK CITY, NY","LATITUDE":40.73428991301304,"LONGITUDE":-73.99909863992308,"STATION":"9th St.","RAIL_LINE":"PATH","MUN_LABEL":"New York City, NY","ATIS_ID":"PATH06","AMTRAK":"N"},"geometry":{"type":"Point","coordinates":[-73.99910008752532,40.73429817386628]}},{"type":"Feature","properties":{"OBJECTID":173,"COUNTY":"NEW YORK CITY, NY","LATITUDE":40.73289391304118,"LONGITUDE":-74.00691964005591,"STATION":"Christopher St.","RAIL_LINE":"PATH","MUN_LABEL":"New York City, NY","ATIS_ID":"PATH07","AMTRAK":"N"},"geometry":{"type":"Point","coordinates":[-74.00692109007797,40.732902173346474]}},{"type":"Feature","properties":{"OBJECTID":174,"COUNTY":"NEW YORK CITY, NY","LATITUDE":40.711288912609916,"LONGITUDE":-74.01213363999244,"STATION":"World Trade Center","RAIL_LINE":"PATH","MUN_LABEL":"New York City, NY","ATIS_ID":"PATH08","AMTRAK":"N"},"geometry":{"type":"Point","coordinates":[-74.01213509037387,40.71129716849952]}},{"type":"Feature","properties":{"OBJECTID":175,"COUNTY":"HUDSON","LATITUDE":40.71697391268816,"LONGITUDE":-74.03342063918693,"STATION":"Exchange Place","RAIL_LINE":"PATH","MUN_LABEL":"Jersey City","ATIS_ID":"PATH09","AMTRAK":"N"},"geometry":{"type":"Point","coordinates":[-74.03342209672824,40.716982168944234]}},{"type":"Feature","properties":{"OBJECTID":176,"COUNTY":"HUDSON","LATITUDE":40.71945191296479,"LONGITUDE":-74.04281163961464,"STATION":"Grove St.","RAIL_LINE":"PATH","MUN_LABEL":"Jersey City","ATIS_ID":"PATH10","AMTRAK":"N"},"geometry":{"type":"Point","coordinates":[-74.04281310031283,40.71946016937634]}},{"type":"Feature","properties":{"OBJECTID":177,"COUNTY":"HUDSON","LATITUDE":40.73197691307064,"LONGITUDE":-74.06296163971872,"STATION":"Journal Square","RAIL_LINE":"PATH","MUN_LABEL":"Jersey City","ATIS_ID":"PATH11","AMTRAK":"N"},"geometry":{"type":"Point","coordinates":[-74.06296310762873,40.73198517122667]}},{"type":"Feature","properties":{"OBJECTID":178,"COUNTY":"HUDSON","LATITUDE":40.73923091346406,"LONGITUDE":-74.1558946388305,"STATION":"Harrison","RAIL_LINE":"PATH","MUN_LABEL":"Harrison Town","ATIS_ID":"PATH12","AMTRAK":"N"},"geometry":{"type":"Point","coordinates":[-74.15589613692882,40.739239169763664]}},{"type":"Feature","properties":{"OBJECTID":179,"COUNTY":"ESSEX","LATITUDE":40.73405791355243,"LONGITUDE":-74.16436363923448,"STATION":"Newark Penn Station","RAIL_LINE":"PATH","MUN_LABEL":"Newark City","ATIS_ID":"PATH13","AMTRAK":"N"},"geometry":{"type":"Point","coordinates":[-74.1643651397271,40.73406616854046]}},{"type":"Feature","properties":{"OBJECTID":180,"COUNTY":"HUDSON","LATITUDE":40.67183492247682,"LONGITUDE":-74.10746465833601,"STATION":"E. 34th St.","RAIL_LINE":"Hudson-Bergen Light Rail","MUN_LABEL":"Bayonne City","ATIS_ID":"30844","AMTRAK":"N"},"geometry":{"type":"Point","coordinates":[-74.1074661368344,40.67184316728239]}},{"type":"Feature","properties":{"OBJECTID":181,"COUNTY":"HUDSON","LATITUDE":40.678694934881555,"LONGITUDE":-74.10164197392615,"STATION":"E. 45th St.","RAIL_LINE":"Hudson-Bergen Light Rail","MUN_LABEL":"Bayonne City","ATIS_ID":"30843","AMTRAK":"N"},"geometry":{"type":"Point","coordinates":[-74.10164345097817,40.67870318123699]}},{"type":"Feature","properties":{"OBJECTID":182,"COUNTY":"HUDSON","LATITUDE":40.69236167793758,"LONGITUDE":-74.08726856030665,"STATION":"Danforth Ave.","RAIL_LINE":"Hudson-Bergen Light Rail","MUN_LABEL":"Jersey City","ATIS_ID":"30842","AMTRAK":"N"},"geometry":{"type":"Point","coordinates":[-74.08727003358935,40.6923699274777]}},{"type":"Feature","properties":{"OBJECTID":183,"COUNTY":"HUDSON","LATITUDE":40.69914759504784,"LONGITUDE":-74.07863665064238,"STATION":"Richard St.","RAIL_LINE":"Hudson-Bergen Light Rail","MUN_LABEL":"Jersey City","ATIS_ID":"30841","AMTRAK":"N"},"geometry":{"type":"Point","coordinates":[-74.07863812157477,40.69915584622151]}},{"type":"Feature","properties":{"OBJECTID":184,"COUNTY":"HUDSON","LATITUDE":40.714557997266255,"LONGITUDE":-74.0875840031557,"STATION":"West Side Ave.","RAIL_LINE":"Hudson-Bergen Light Rail","MUN_LABEL":"Jersey City","ATIS_ID":"30840","AMTRAK":"N"},"geometry":{"type":"Point","coordinates":[-74.08758547788818,40.714566251144255]}},{"type":"Feature","properties":{"OBJECTID":185,"COUNTY":"HUDSON","LATITUDE":40.712098793686756,"LONGITUDE":-74.07733409605427,"STATION":"Martin Luther King Dr.","RAIL_LINE":"Hudson-Bergen Light Rail","MUN_LABEL":"Jersey City","ATIS_ID":"30839","AMTRAK":"N"},"geometry":{"type":"Point","coordinates":[-74.0773355673566,40.712107047443794]}},{"type":"Feature","properties":{"OBJECTID":186,"COUNTY":"HUDSON","LATITUDE":40.7105762740205,"LONGITUDE":-74.07109687340875,"STATION":"Garfield Ave.","RAIL_LINE":"Hudson-Bergen Light Rail","MUN_LABEL":"Jersey City","ATIS_ID":"30838","AMTRAK":"N"},"geometry":{"type":"Point","coordinates":[-74.0710983426222,40.7105845276987]}},{"type":"Feature","properties":{"OBJECTID":187,"COUNTY":"HUDSON","LATITUDE":40.710374997185916,"LONGITUDE":-74.0558130027652,"STATION":"Liberty State Park","RAIL_LINE":"Hudson-Bergen Light Rail","MUN_LABEL":"Jersey City","ATIS_ID":"30837","AMTRAK":"N"},"geometry":{"type":"Point","coordinates":[-74.05581446707426,40.7103832513622]}},{"type":"Feature","properties":{"OBJECTID":188,"COUNTY":"HUDSON","LATITUDE":40.71498219586733,"LONGITUDE":-74.04848344009889,"STATION":"Jersey Ave.","RAIL_LINE":"Hudson-Bergen Light Rail","MUN_LABEL":"Jersey City","ATIS_ID":"30836","AMTRAK":"N"},"geometry":{"type":"Point","coordinates":[-74.0484849023414,40.7149904512039]}},{"type":"Feature","properties":{"OBJECTID":189,"COUNTY":"HUDSON","LATITUDE":40.714435997840916,"LONGITUDE":-74.04324700304963,"STATION":"Marin Blvd.","RAIL_LINE":"Hudson-Bergen Light Rail","MUN_LABEL":"Jersey City","ATIS_ID":"30835","AMTRAK":"N"},"geometry":{"type":"Point","coordinates":[-74.0432484635827,40.71444425325451]}},{"type":"Feature","properties":{"OBJECTID":190,"COUNTY":"HUDSON","LATITUDE":40.71284099714192,"LONGITUDE":-74.0360760032664,"STATION":"Essex St.","RAIL_LINE":"Hudson-Bergen Light Rail","MUN_LABEL":"Jersey City","ATIS_ID":"30834","AMTRAK":"N"},"geometry":{"type":"Point","coordinates":[-74.03607746140703,40.712849252495]}},{"type":"Feature","properties":{"OBJECTID":191,"COUNTY":"HUDSON","LATITUDE":40.7160183491574,"LONGITUDE":-74.03409078233287,"STATION":"Exchange Pl.","RAIL_LINE":"Hudson-Bergen Light Rail","MUN_LABEL":"Jersey City","ATIS_ID":"30833","AMTRAK":"N"},"geometry":{"type":"Point","coordinates":[-74.03409224003076,40.71602660520273]}},{"type":"Feature","properties":{"OBJECTID":192,"COUNTY":"HUDSON","LATITUDE":40.718909846778125,"LONGITUDE":-74.03410958319182,"STATION":"Harborside","RAIL_LINE":"Hudson-Bergen Light Rail","MUN_LABEL":"Jersey City","ATIS_ID":"30832","AMTRAK":"N"},"geometry":{"type":"Point","coordinates":[-74.03411104107118,40.718918103389285]}},{"type":"Feature","properties":{"OBJECTID":193,"COUNTY":"HUDSON","LATITUDE":40.72267865107391,"LONGITUDE":-74.03728638883747,"STATION":"Harismus Cove","RAIL_LINE":"Hudson-Bergen Light Rail","MUN_LABEL":"Jersey City","ATIS_ID":"30831","AMTRAK":"N"},"geometry":{"type":"Point","coordinates":[-74.03728784796267,40.72268690831173]}},{"type":"Feature","properties":{"OBJECTID":194,"COUNTY":"HUDSON","LATITUDE":40.726819065873485,"LONGITUDE":-74.03623327838818,"STATION":"Newport","RAIL_LINE":"Hudson-Bergen Light Rail","MUN_LABEL":"Jersey City","ATIS_ID":"30830","AMTRAK":"N"},"geometry":{"type":"Point","coordinates":[-74.03623473742759,40.7268273239593]}},{"type":"Feature","properties":{"OBJECTID":195,"COUNTY":"HUDSON","LATITUDE":40.7340505129374,"LONGITUDE":-74.02920110464102,"STATION":"Hoboken Terminal","RAIL_LINE":"Hudson-Bergen Light Rail","MUN_LABEL":"Hoboken City","ATIS_ID":"30829","AMTRAK":"N"},"geometry":{"type":"Point","coordinates":[-74.029202561868,40.73405877268664]}},{"type":"Feature","properties":{"OBJECTID":196,"COUNTY":"HUDSON","LATITUDE":40.661303560599286,"LONGITUDE":-74.11645599928288,"STATION":"E. 22nd St.","RAIL_LINE":"Hudson-Bergen Light Rail","MUN_LABEL":"Bayonne City","ATIS_ID":"30845","AMTRAK":"N"},"geometry":{"type":"Point","coordinates":[-74.1164574800184,40.66131180302326]}},{"type":"Feature","properties":{"OBJECTID":197,"COUNTY":"HUDSON","LATITUDE":40.74887797005091,"LONGITUDE":-74.03851291370749,"STATION":"9th St./Congress St.","RAIL_LINE":"Hudson-Bergen Light Rail","MUN_LABEL":"Hoboken City","ATIS_ID":"30827","AMTRAK":"N"},"geometry":{"type":"Point","coordinates":[-74.03851437481717,40.74888623237592]}},{"type":"Feature","properties":{"OBJECTID":198,"COUNTY":"HUDSON","LATITUDE":40.74173944448341,"LONGITUDE":-74.04281065306392,"STATION":"2nd St.","RAIL_LINE":"Hudson-Bergen Light Rail","MUN_LABEL":"Jersey City","ATIS_ID":"30828","AMTRAK":"N"},"geometry":{"type":"Point","coordinates":[-74.04281211511578,40.741747705259776]}},{"type":"Feature","properties":{"OBJECTID":199,"COUNTY":"HUDSON","LATITUDE":40.76140229004045,"LONGITUDE":-74.02400146828542,"STATION":"Lincoln Harbor","RAIL_LINE":"Hudson-Bergen Light Rail","MUN_LABEL":"Weehawken Township","ATIS_ID":"30826","AMTRAK":"N"},"geometry":{"type":"Point","coordinates":[-74.02400292550945,40.761410555327075]}},{"type":"Feature","properties":{"OBJECTID":200,"COUNTY":"HUDSON","LATITUDE":40.775967504196544,"LONGITUDE":-74.01279770141666,"STATION":"Port Imperial","RAIL_LINE":"Hudson-Bergen Light Rail","MUN_LABEL":"Weehawken Township","ATIS_ID":"30825","AMTRAK":"N"},"geometry":{"type":"Point","coordinates":[-74.01279915593803,40.775975772727065]}},{"type":"Feature","properties":{"OBJECTID":201,"COUNTY":"HUDSON","LATITUDE":40.78259489607214,"LONGITUDE":-74.02290139138667,"STATION":"Bergenline Ave.","RAIL_LINE":"Hudson-Bergen Light Rail","MUN_LABEL":"Union City","ATIS_ID":"30824","AMTRAK":"N"},"geometry":{"type":"Point","coordinates":[-74.02290284954778,40.782603165543854]}},{"type":"Feature","properties":{"OBJECTID":202,"COUNTY":"HUDSON","LATITUDE":40.787325871765916,"LONGITUDE":-74.03125858992989,"STATION":"Tonnelle Ave.","RAIL_LINE":"Hudson-Bergen Light Rail","MUN_LABEL":"North Bergen Township","ATIS_ID":"30823","AMTRAK":"N"},"geometry":{"type":"Point","coordinates":[-74.03126005105612,40.78733414186894]}},{"type":"Feature","properties":{"OBJECTID":203,"COUNTY":"ESSEX","LATITUDE":40.77233770913374,"LONGITUDE":-74.17818803247017,"STATION":"Davenport Ave.","RAIL_LINE":"Newark Light Rail","MUN_LABEL":"Newark City","ATIS_ID":"30763","AMTRAK":"N"},"geometry":{"type":"Point","coordinates":[-74.17818953972777,40.77234597112091]}},{"type":"Feature","properties":{"OBJECTID":204,"COUNTY":"ESSEX","LATITUDE":40.7349255983147,"LONGITUDE":-74.1634875089416,"STATION":"Newark Penn Station","RAIL_LINE":"Newark Light Rail","MUN_LABEL":"Newark City","ATIS_ID":"30771","AMTRAK":"N"},"geometry":{"type":"Point","coordinates":[-74.16348900920686,40.73493385350347]}},{"type":"Feature","properties":{"OBJECTID":205,"COUNTY":"ESSEX","LATITUDE":40.73743525549716,"LONGITUDE":-74.17079141771191,"STATION":"Military Park","RAIL_LINE":"Newark Light Rail","MUN_LABEL":"Newark City","ATIS_ID":"30770","AMTRAK":"N"},"geometry":{"type":"Point","coordinates":[-74.1707929204677,40.73744351091897]}},{"type":"Feature","properties":{"OBJECTID":206,"COUNTY":"ESSEX","LATITUDE":40.738348954405424,"LONGITUDE":-74.1740335005887,"STATION":"Washington St.","RAIL_LINE":"Newark Light Rail","MUN_LABEL":"Newark City","ATIS_ID":"30769","AMTRAK":"N"},"geometry":{"type":"Point","coordinates":[-74.17403500443778,40.73835720989145]}},{"type":"Feature","properties":{"OBJECTID":207,"COUNTY":"ESSEX","LATITUDE":40.74240905362938,"LONGITUDE":-74.18118796179286,"STATION":"Warren St.","RAIL_LINE":"Newark Light Rail","MUN_LABEL":"Newark City","ATIS_ID":"30768","AMTRAK":"N"},"geometry":{"type":"Point","coordinates":[-74.18118946817951,40.742417309656844]}},{"type":"Feature","properties":{"OBJECTID":208,"COUNTY":"ESSEX","LATITUDE":40.74534165937171,"LONGITUDE":-74.1830076044957,"STATION":"Norfolk St.","RAIL_LINE":"Newark Light Rail","MUN_LABEL":"Newark City","ATIS_ID":"30767","AMTRAK":"N"},"geometry":{"type":"Point","coordinates":[-74.18300911164391,40.745349915908584]}},{"type":"Feature","properties":{"OBJECTID":209,"COUNTY":"ESSEX","LATITUDE":40.77963816561119,"LONGITUDE":-74.17466420267449,"STATION":"Branch Brook Park","RAIL_LINE":"Newark Light Rail","MUN_LABEL":"Newark City","ATIS_ID":"30762","AMTRAK":"N"},"geometry":{"type":"Point","coordinates":[-74.17466570925123,40.77964642915027]}},{"type":"Feature","properties":{"OBJECTID":210,"COUNTY":"ESSEX","LATITUDE":40.76543535883164,"LONGITUDE":-74.17988188531692,"STATION":"Bloomfield Ave.","RAIL_LINE":"Newark Light Rail","MUN_LABEL":"Newark City","ATIS_ID":"30764","AMTRAK":"N"},"geometry":{"type":"Point","coordinates":[-74.17988339269412,40.76544361940927]}},{"type":"Feature","properties":{"OBJECTID":211,"COUNTY":"ESSEX","LATITUDE":40.75062342800214,"LONGITUDE":-74.1849406785589,"STATION":"Orange St.","RAIL_LINE":"Newark Light Rail","MUN_LABEL":"Newark City","ATIS_ID":"30766","AMTRAK":"N"},"geometry":{"type":"Point","coordinates":[-74.18494218664877,40.75063168550389]}},{"type":"Feature","properties":{"OBJECTID":212,"COUNTY":"ESSEX","LATITUDE":40.75852584483356,"LONGITUDE":-74.18498171776115,"STATION":"Park Ave.","RAIL_LINE":"Newark Light Rail","MUN_LABEL":"Newark City","ATIS_ID":"30765","AMTRAK":"N"},"geometry":{"type":"Point","coordinates":[-74.18498322634764,40.75853410387951]}},{"type":"Feature","properties":{"OBJECTID":213,"COUNTY":"ESSEX","LATITUDE":40.78032658576768,"LONGITUDE":-74.18062943767696,"STATION":"Silver Lake","RAIL_LINE":"Newark Light Rail","MUN_LABEL":"Belleville Township","ATIS_ID":"30761","AMTRAK":"N"},"geometry":{"type":"Point","coordinates":[-74.18063094620531,40.780334849230194]}},{"type":"Feature","properties":{"OBJECTID":214,"COUNTY":"ESSEX","LATITUDE":40.78044825453056,"LONGITUDE":-74.18795865592003,"STATION":"Grove St.","RAIL_LINE":"Newark Light Rail","MUN_LABEL":"Bloomfield Township","ATIS_ID":"30539","AMTRAK":"N"},"geometry":{"type":"Point","coordinates":[-74.18796016680183,40.78045651775741]}},{"type":"Feature","properties":{"OBJECTID":215,"COUNTY":"ESSEX","LATITUDE":40.739500640272496,"LONGITUDE":-74.16557994989417,"STATION":"NJPAC/Center St.","RAIL_LINE":"Newark Light Rail","MUN_LABEL":"Newark City","ATIS_ID":"30772","AMTRAK":"N"},"geometry":{"type":"Point","coordinates":[-74.16558145110842,40.739508896282665]}},{"type":"Feature","properties":{"OBJECTID":216,"COUNTY":"ESSEX","LATITUDE":40.744161611143504,"LONGITUDE":-74.16848934700332,"STATION":"Atlantic St.","RAIL_LINE":"Newark Light Rail","MUN_LABEL":"Newark City","ATIS_ID":"30773","AMTRAK":"N"},"geometry":{"type":"Point","coordinates":[-74.16849084943341,40.74416986796286]}},{"type":"Feature","properties":{"OBJECTID":217,"COUNTY":"ESSEX","LATITUDE":40.743943557491406,"LONGITUDE":-74.16984897058704,"STATION":"Washington Park","RAIL_LINE":"Newark Light Rail","MUN_LABEL":"Newark City","ATIS_ID":"30776","AMTRAK":"N"},"geometry":{"type":"Point","coordinates":[-74.1698504734389,40.74395181422003]}},{"type":"Feature","properties":{"OBJECTID":218,"COUNTY":"ESSEX","LATITUDE":40.746014947611314,"LONGITUDE":-74.16965991414743,"STATION":"Riverfront Stadium","RAIL_LINE":"Newark Light Rail","MUN_LABEL":"Newark City","ATIS_ID":"30774","AMTRAK":"N"},"geometry":{"type":"Point","coordinates":[-74.16966141706538,40.74602320475191]}},{"type":"Feature","properties":{"OBJECTID":219,"COUNTY":"ESSEX","LATITUDE":40.7472057708031,"LONGITUDE":-74.17150597522951,"STATION":"Broad St. Station","RAIL_LINE":"Newark Light Rail","MUN_LABEL":"Newark City","ATIS_ID":"30775","AMTRAK":"N"},"geometry":{"type":"Point","coordinates":[-74.17150747881104,40.747214028111394]}},{"type":"Feature","properties":{"OBJECTID":220,"COUNTY":"MERCER","LATITUDE":40.21837214594792,"LONGITUDE":-74.75508318934641,"STATION":"Trenton","RAIL_LINE":"River LINE","MUN_LABEL":"Trenton City","ATIS_ID":"30855","AMTRAK":"N"},"geometry":{"type":"Point","coordinates":[-74.7550848468403,40.21838027852005]}},{"type":"Feature","properties":{"OBJECTID":221,"COUNTY":"MERCER","LATITUDE":40.211940750853984,"LONGITUDE":-74.75576517123447,"STATION":"Hamilton Ave.","RAIL_LINE":"River LINE","MUN_LABEL":"Trenton City","ATIS_ID":"30856","AMTRAK":"N"},"geometry":{"type":"Point","coordinates":[-74.7557668285547,40.21194888213028]}},{"type":"Feature","properties":{"OBJECTID":222,"COUNTY":"MERCER","LATITUDE":40.205427517951975,"LONGITUDE":-74.75427599680984,"STATION":"Cass St.","RAIL_LINE":"River LINE","MUN_LABEL":"Trenton City","ATIS_ID":"30857","AMTRAK":"N"},"geometry":{"type":"Point","coordinates":[-74.75427765326144,40.205435647993504]}},{"type":"Feature","properties":{"OBJECTID":223,"COUNTY":"BURLINGTON","LATITUDE":40.14818913497221,"LONGITUDE":-74.71624254447575,"STATION":"Bordentown","RAIL_LINE":"River LINE","MUN_LABEL":"Bordentown City","ATIS_ID":"30858","AMTRAK":"N"},"geometry":{"type":"Point","coordinates":[-74.71624418537465,40.14819725504036]}},{"type":"Feature","properties":{"OBJECTID":224,"COUNTY":"BURLINGTON","LATITUDE":40.11689175136618,"LONGITUDE":-74.77023596656846,"STATION":"Roebling","RAIL_LINE":"River LINE","MUN_LABEL":"Florence Township","ATIS_ID":"30859","AMTRAK":"N"},"geometry":{"type":"Point","coordinates":[-74.77023762273114,40.11689986331242]}},{"type":"Feature","properties":{"OBJECTID":225,"COUNTY":"BURLINGTON","LATITUDE":40.10000061581565,"LONGITUDE":-74.80510807324553,"STATION":"Florence","RAIL_LINE":"River LINE","MUN_LABEL":"Florence Township","ATIS_ID":"30860","AMTRAK":"N"},"geometry":{"type":"Point","coordinates":[-74.8051097394625,40.100008723171946]}},{"type":"Feature","properties":{"OBJECTID":226,"COUNTY":"BURLINGTON","LATITUDE":40.077370903318226,"LONGITUDE":-74.85942871879155,"STATION":"Burlington Town Centre","RAIL_LINE":"River LINE","MUN_LABEL":"Burlington City","ATIS_ID":"30861","AMTRAK":"N"},"geometry":{"type":"Point","coordinates":[-74.8594304008857,40.077379004250915]}},{"type":"Feature","properties":{"OBJECTID":227,"COUNTY":"BURLINGTON","LATITUDE":40.07459302981877,"LONGITUDE":-74.86900745544557,"STATION":"Burlington South","RAIL_LINE":"River LINE","MUN_LABEL":"Burlington City","ATIS_ID":"30862","AMTRAK":"N"},"geometry":{"type":"Point","coordinates":[-74.86900914041193,40.07460112985873]}},{"type":"Feature","properties":{"OBJECTID":228,"COUNTY":"BURLINGTON","LATITUDE":40.061094998091335,"LONGITUDE":-74.91521600125553,"STATION":"Beverly/Edgewater Park","RAIL_LINE":"River LINE","MUN_LABEL":"Beverly City","ATIS_ID":"30863","AMTRAK":"N"},"geometry":{"type":"Point","coordinates":[-74.91521770006848,40.0611030938039]}},{"type":"Feature","properties":{"OBJECTID":229,"COUNTY":"BURLINGTON","LATITUDE":40.04810258475459,"LONGITUDE":-74.95036392178932,"STATION":"Delanco","RAIL_LINE":"River LINE","MUN_LABEL":"Delanco Township","ATIS_ID":"30864","AMTRAK":"N"},"geometry":{"type":"Point","coordinates":[-74.95036563096572,40.04811067663332]}},{"type":"Feature","properties":{"OBJECTID":230,"COUNTY":"BURLINGTON","LATITUDE":40.03926017498441,"LONGITUDE":-74.95889042291753,"STATION":"Riverside","RAIL_LINE":"River LINE","MUN_LABEL":"Riverside Township","ATIS_ID":"30865","AMTRAK":"N"},"geometry":{"type":"Point","coordinates":[-74.95889213426268,40.03926826480413]}},{"type":"Feature","properties":{"OBJECTID":231,"COUNTY":"BURLINGTON","LATITUDE":40.016652339452236,"LONGITUDE":-74.99998049774776,"STATION":"Cinnaminson","RAIL_LINE":"River LINE","MUN_LABEL":"Cinnaminson Township","ATIS_ID":"30866","AMTRAK":"N"},"geometry":{"type":"Point","coordinates":[-74.99998222075321,40.016660423315265]}},{"type":"Feature","properties":{"OBJECTID":232,"COUNTY":"BURLINGTON","LATITUDE":40.008964392685975,"LONGITUDE":-75.01307949094931,"STATION":"Riverton","RAIL_LINE":"River LINE","MUN_LABEL":"Riverton Borough","ATIS_ID":"30867","AMTRAK":"N"},"geometry":{"type":"Point","coordinates":[-75.01308121764173,40.008972474554014]}},{"type":"Feature","properties":{"OBJECTID":233,"COUNTY":"BURLINGTON","LATITUDE":40.00426257455135,"LONGITUDE":-75.02109455715515,"STATION":"Palmyra","RAIL_LINE":"River LINE","MUN_LABEL":"Palmyra Borough","ATIS_ID":"30868","AMTRAK":"N"},"geometry":{"type":"Point","coordinates":[-75.02109628610343,40.004270655199015]}},{"type":"Feature","properties":{"OBJECTID":234,"COUNTY":"CAMDEN","LATITUDE":39.99341402323895,"LONGITUDE":-75.03907026799408,"STATION":"Pennsauken/Route 73","RAIL_LINE":"River LINE","MUN_LABEL":"Pennsauken Township","ATIS_ID":"30869","AMTRAK":"N"},"geometry":{"type":"Point","coordinates":[-75.03907200198257,39.99342210108887]}},{"type":"Feature","properties":{"OBJECTID":235,"COUNTY":"CAMDEN","LATITUDE":39.961274788412595,"LONGITUDE":-75.07909510742356,"STATION":"36th St.","RAIL_LINE":"River LINE","MUN_LABEL":"Pennsauken Township","ATIS_ID":"30870","AMTRAK":"N"},"geometry":{"type":"Point","coordinates":[-75.07909685214726,39.96128285844522]}},{"type":"Feature","properties":{"OBJECTID":236,"COUNTY":"CAMDEN","LATITUDE":39.94748495010871,"LONGITUDE":-75.12414458113294,"STATION":"Cooper St./Rutgers","RAIL_LINE":"River LINE","MUN_LABEL":"Camden City","ATIS_ID":"30872","AMTRAK":"N"},"geometry":{"type":"Point","coordinates":[-75.12414633929046,39.94749301578479]}},{"type":"Feature","properties":{"OBJECTID":237,"COUNTY":"CAMDEN","LATITUDE":39.9456260386934,"LONGITUDE":-75.12866949658037,"STATION":"Aquarium","RAIL_LINE":"River LINE","MUN_LABEL":"Camden City","ATIS_ID":"30873","AMTRAK":"N"},"geometry":{"type":"Point","coordinates":[-75.12867125605821,39.945634103837634]}},{"type":"Feature","properties":{"OBJECTID":238,"COUNTY":"CAMDEN","LATITUDE":39.94091568254512,"LONGITUDE":-75.12848995854038,"STATION":"Entertainment Ctr.","RAIL_LINE":"River LINE","MUN_LABEL":"Camden City","ATIS_ID":"30874","AMTRAK":"N"},"geometry":{"type":"Point","coordinates":[-75.12849171767573,39.94092374676004]}},{"type":"Feature","properties":{"OBJECTID":239,"COUNTY":"HUDSON","LATITUDE":40.65429255741706,"LONGITUDE":-74.1289421017532,"STATION":"8th St.","RAIL_LINE":"Hudson-Bergen Light Rail","MUN_LABEL":"Bayonne City","ATIS_ID":"31145","AMTRAK":"N"},"geometry":{"type":"Point","coordinates":[-74.12894358605709,40.65430079802642]}},{"type":"Feature","properties":{"OBJECTID":240,"COUNTY":"CAMDEN","LATITUDE":39.97829756624085,"LONGITUDE":-75.06197319934431,"STATION":"Pennsauken Transit Ctr.","RAIL_LINE":"River LINE","MUN_LABEL":"Pennsauken Township","ATIS_ID":"31898","AMTRAK":"N"},"geometry":{"type":"Point","coordinates":[-75.06197493967471,39.97830564026826]}},{"type":"Feature","properties":{"OBJECTID":241,"COUNTY":"PHILADELPHIA, PA","LATITUDE":39.94811475457399,"LONGITUDE":-75.16731715480351,"STATION":"15-16th & Locust St.","RAIL_LINE":"PATCO Speedline","MUN_LABEL":"Philadelphia, PA","ATIS_ID":"PATCO01","AMTRAK":"N"},"geometry":{"type":"Point","coordinates":[-75.16731892667094,39.94812281882288]}},{"type":"Feature","properties":{"OBJECTID":242,"COUNTY":"PHILADELPHIA, PA","LATITUDE":39.94751275605039,"LONGITUDE":-75.16185416502924,"STATION":"12-13th & Locust St.","RAIL_LINE":"PATCO Speedline","MUN_LABEL":"Philadelphia, PA","ATIS_ID":"PATCO02","AMTRAK":"N"},"geometry":{"type":"Point","coordinates":[-75.16185593513026,39.947520820376255]}},{"type":"Feature","properties":{"OBJECTID":243,"COUNTY":"PHILADELPHIA, PA","LATITUDE":39.94691875741445,"LONGITUDE":-75.15702117555,"STATION":"9-10th & Locust St.","RAIL_LINE":"PATCO Speedline","MUN_LABEL":"Philadelphia, PA","ATIS_ID":"PATCO03","AMTRAK":"N"},"geometry":{"type":"Point","coordinates":[-75.15702294408456,39.94692682179621]}},{"type":"Feature","properties":{"OBJECTID":244,"COUNTY":"PHILADELPHIA, PA","LATITUDE":39.950685749338426,"LONGITUDE":-75.15361218251458,"STATION":"8Th & Market","RAIL_LINE":"PATCO Speedline","MUN_LABEL":"Philadelphia, PA","ATIS_ID":"PATCO04","AMTRAK":"N"},"geometry":{"type":"Point","coordinates":[-75.1536139501984,39.95069381459096]}},{"type":"Feature","properties":{"OBJECTID":245,"COUNTY":"CAMDEN","LATITUDE":39.945085402384706,"LONGITUDE":-75.12110808712485,"STATION":"City Hall","RAIL_LINE":"PATCO Speedline","MUN_LABEL":"Camden City","ATIS_ID":"PATCO05","AMTRAK":"N"},"geometry":{"type":"Point","coordinates":[-75.12110984417521,39.94509346769321]}},{"type":"Feature","properties":{"OBJECTID":246,"COUNTY":"CAMDEN","LATITUDE":39.94300569494729,"LONGITUDE":-75.119865286666,"STATION":"Broadway","RAIL_LINE":"PATCO Speedline","MUN_LABEL":"Camden City","ATIS_ID":"PATCO06","AMTRAK":"N"},"geometry":{"type":"Point","coordinates":[-75.11986704319666,39.94301375988725]}},{"type":"Feature","properties":{"OBJECTID":247,"COUNTY":"CAMDEN","LATITUDE":39.92255305916872,"LONGITUDE":-75.09175446742303,"STATION":"Ferry Ave.","RAIL_LINE":"PATCO Speedline","MUN_LABEL":"Camden City","ATIS_ID":"PATCO07","AMTRAK":"N"},"geometry":{"type":"Point","coordinates":[-75.0917562138125,39.9225611210528]}},{"type":"Feature","properties":{"OBJECTID":248,"COUNTY":"CAMDEN","LATITUDE":39.91363143810834,"LONGITUDE":-75.06468540127723,"STATION":"Collingswood","RAIL_LINE":"PATCO Speedline","MUN_LABEL":"Collingswood Borough","ATIS_ID":"PATCO08","AMTRAK":"N"},"geometry":{"type":"Point","coordinates":[-75.06468713855446,39.9136394991885]}},{"type":"Feature","properties":{"OBJECTID":249,"COUNTY":"CAMDEN","LATITUDE":39.90700947006215,"LONGITUDE":-75.04662685216624,"STATION":"Westmont","RAIL_LINE":"PATCO Speedline","MUN_LABEL":"Haddon Township","ATIS_ID":"PATCO09","AMTRAK":"N"},"geometry":{"type":"Point","coordinates":[-75.04662858332418,39.90701753047166]}},{"type":"Feature","properties":{"OBJECTID":250,"COUNTY":"CAMDEN","LATITUDE":39.89746429540943,"LONGITUDE":-75.03688800545979,"STATION":"Haddonfield","RAIL_LINE":"PATCO Speedline","MUN_LABEL":"Haddonfield Borough","ATIS_ID":"PATCO10","AMTRAK":"N"},"geometry":{"type":"Point","coordinates":[-75.03688973295756,39.8974723542683]}},{"type":"Feature","properties":{"OBJECTID":251,"COUNTY":"CAMDEN","LATITUDE":39.87017623316253,"LONGITUDE":-75.0112667922062,"STATION":"Woodcrest","RAIL_LINE":"PATCO Speedline","MUN_LABEL":"Cherry Hill Township","ATIS_ID":"PATCO11","AMTRAK":"N"},"geometry":{"type":"Point","coordinates":[-75.01126850994673,39.87018428750498]}},{"type":"Feature","properties":{"OBJECTID":252,"COUNTY":"CAMDEN","LATITUDE":39.85869489259318,"LONGITUDE":-75.00923513565597,"STATION":"Ashland","RAIL_LINE":"PATCO Speedline","MUN_LABEL":"Voorhees Township","ATIS_ID":"PATCO12","AMTRAK":"N"},"geometry":{"type":"Point","coordinates":[-75.00923685206308,39.85870294472148]}},{"type":"Feature","properties":{"OBJECTID":253,"COUNTY":"CAMDEN","LATITUDE":39.8338109866067,"LONGITUDE":-75.0003144902394,"STATION":"Lindenwold","RAIL_LINE":"PATCO Speedline","MUN_LABEL":"Lindenwold Borough","ATIS_ID":"PATCO13","AMTRAK":"N"},"geometry":{"type":"Point","coordinates":[-75.00031620232812,39.83381903409488]}},{"type":"Feature","properties":{"OBJECTID":254,"COUNTY":"CAMDEN","LATITUDE":39.943156200843504,"LONGITUDE":-75.12032703448433,"STATION":"Walter Rand Transportation Center","RAIL_LINE":"River LINE","MUN_LABEL":"Camden City","ATIS_ID":"30871","AMTRAK":"N"},"geometry":{"type":"Point","coordinates":[-75.12032879117038,39.943164265796774]}},{"type":"Feature","properties":{"OBJECTID":255,"COUNTY":"Bergen","LATITUDE":40.85497521626032,"LONGITUDE":-74.0969519202422,"STATION":"Wesmont","RAIL_LINE":"Main/Bergen Line","MUN_LABEL":"Wallington Borough","ATIS_ID":" ","AMTRAK":"N"},"geometry":{"type":"Point","coordinates":[-74.09695340654815,40.85498349726342]}},{"type":"Feature","properties":{"OBJECTID":256,"COUNTY":"MERCER","LATITUDE":40.25731573182763,"LONGITUDE":-74.8154897458697,"STATION":"West Trenton","RAIL_LINE":"West Trenton Line","MUN_LABEL":"Ewing Township","ATIS_ID":null,"AMTRAK":"N"},"geometry":{"type":"Point","coordinates":[-74.81549142493651,40.25732386993441]}},{"type":"Feature","properties":{"OBJECTID":257,"COUNTY":"BUCKS, PA","LATITUDE":40.16063086964088,"LONGITUDE":-74.91310687033653,"STATION":"Langhorne","RAIL_LINE":"West Trenton Line","MUN_LABEL":"Middletown Township, PA","ATIS_ID":null,"AMTRAK":"N"},"geometry":{"type":"Point","coordinates":[-74.91310857452433,40.16063898514281]}},{"type":"Feature","properties":{"OBJECTID":258,"COUNTY":"MONTGOMERY, PA","LATITUDE":40.11134393282796,"LONGITUDE":-75.09250510898265,"STATION":"Meadowbrook","RAIL_LINE":"West Trenton Line","MUN_LABEL":"Abington Township, PA","ATIS_ID":null,"AMTRAK":"N"},"geometry":{"type":"Point","coordinates":[-75.09250686709096,40.1113520321299]}},{"type":"Feature","properties":{"OBJECTID":259,"COUNTY":"BUCKS, PA","LATITUDE":40.14684134461511,"LONGITUDE":-74.9621414768327,"STATION":"Neshaminy Falls","RAIL_LINE":"West Trenton Line","MUN_LABEL":"Bensalem Township, PA","ATIS_ID":null,"AMTRAK":"N"},"geometry":{"type":"Point","coordinates":[-74.96214319574719,40.14684945563006]}},{"type":"Feature","properties":{"OBJECTID":260,"COUNTY":"PHILADELPHIA, PA","LATITUDE":40.127889303120526,"LONGITUDE":-75.0207459580539,"STATION":"Forest Hills","RAIL_LINE":"West Trenton Line","MUN_LABEL":"Philadelphia, PA","ATIS_ID":null,"AMTRAK":"N"},"geometry":{"type":"Point","coordinates":[-75.02074769441036,40.12789740827999]}},{"type":"Feature","properties":{"OBJECTID":261,"COUNTY":"MONTGOMERY, PA","LATITUDE":40.10738089627734,"LONGITUDE":-75.11064879154664,"STATION":"Rydal","RAIL_LINE":"West Trenton Line","MUN_LABEL":"Abington Township, PA","ATIS_ID":null,"AMTRAK":"N"},"geometry":{"type":"Point","coordinates":[-75.11065055516623,40.10738899414089]}},{"type":"Feature","properties":{"OBJECTID":262,"COUNTY":"BUCKS, PA","LATITUDE":40.190861697266115,"LONGITUDE":-74.89089905126848,"STATION":"Woodbourne","RAIL_LINE":"West Trenton Line","MUN_LABEL":"Middletown Township, PA","ATIS_ID":null,"AMTRAK":"N"},"geometry":{"type":"Point","coordinates":[-74.89090075024536,40.190869819542364]}},{"type":"Feature","properties":{"OBJECTID":263,"COUNTY":"PHILADELPHIA, PA","LATITUDE":40.13062201795268,"LONGITUDE":-75.01204798300395,"STATION":"Somerton","RAIL_LINE":"West Trenton Line","MUN_LABEL":"Philadelphia, PA","ATIS_ID":null,"AMTRAK":"N"},"geometry":{"type":"Point","coordinates":[-75.01204971676741,40.13063012396566]}},{"type":"Feature","properties":{"OBJECTID":264,"COUNTY":"MONTGOMERY, PA","LATITUDE":40.11649119746548,"LONGITUDE":-75.0687064272534,"STATION":"Bethayres","RAIL_LINE":"West Trenton Line","MUN_LABEL":"Lower Moreland Township, PA","ATIS_ID":null,"AMTRAK":"N"},"geometry":{"type":"Point","coordinates":[-75.0687081781284,40.11649929864345]}},{"type":"Feature","properties":{"OBJECTID":265,"COUNTY":"BUCKS, PA","LATITUDE":40.235078489311284,"LONGITUDE":-74.83097842650045,"STATION":"Yardley","RAIL_LINE":"West Trenton Line","MUN_LABEL":"Yardley Borough, PA","ATIS_ID":null,"AMTRAK":"N"},"geometry":{"type":"Point","coordinates":[-74.83098010913442,40.235086622471954]}},{"type":"Feature","properties":{"OBJECTID":266,"COUNTY":"MONTGOMERY, PA","LATITUDE":40.12187509677296,"LONGITUDE":-75.04378411083427,"STATION":"Philmont","RAIL_LINE":"West Trenton Line","MUN_LABEL":"Lower Moreland Township, PA","ATIS_ID":null,"AMTRAK":"N"},"geometry":{"type":"Point","coordinates":[-75.0437858541326,40.12188319991357]}},{"type":"Feature","properties":{"OBJECTID":267,"COUNTY":"BUCKS, PA","LATITUDE":40.14014600784857,"LONGITUDE":-74.98275987087665,"STATION":"Trevose","RAIL_LINE":"West Trenton Line","MUN_LABEL":"Bensalem Township, PA","ATIS_ID":null,"AMTRAK":"N"},"geometry":{"type":"Point","coordinates":[-74.982761595927,40.14015411679847]}},{"type":"Feature","properties":{"OBJECTID":268,"COUNTY":"MONTGOMERY, PA","LATITUDE":40.093232425445805,"LONGITUDE":-75.1377199845908,"STATION":"Jenkintown-Wyncote","RAIL_LINE":"West Trenton Line","MUN_LABEL":"Jenkintown Borough, PA","ATIS_ID":null,"AMTRAK":"N"},"geometry":{"type":"Point","coordinates":[-75.13772175592804,40.09324051953268]}},{"type":"Feature","properties":{"OBJECTID":269,"COUNTY":"MONTGOMERY, PA","LATITUDE":40.10436045783282,"LONGITUDE":-75.12450406360914,"STATION":"Noble","RAIL_LINE":"West Trenton Line","MUN_LABEL":"Abington Township, PA","ATIS_ID":null,"AMTRAK":"N"},"geometry":{"type":"Point","coordinates":[-75.12450583143723,40.104368554598864]}},{"type":"Feature","properties":{"OBJECTID":270,"COUNTY":"Montgomery","LATITUDE":40.07123533059,"LONGITUDE":-75.127652105936,"STATION":"Elkins Park","RAIL_LINE":"West Trenton Line","MUN_LABEL":"Cheltenham Township, PA","ATIS_ID":null,"AMTRAK":"N"},"geometry":{"type":"Point","coordinates":[-75.1276538727369,40.071243420684986]}},{"type":"Feature","properties":{"OBJECTID":271,"COUNTY":"Philadelphia","LATITUDE":40.041024001601315,"LONGITUDE":-75.13480195973153,"STATION":"Fern Rock Transportation Center","RAIL_LINE":"West Trenton Line","MUN_LABEL":"Philadelphia, PA","ATIS_ID":null,"AMTRAK":"N"},"geometry":{"type":"Point","coordinates":[-75.13480372695446,40.041032085453374]}},{"type":"Feature","properties":{"OBJECTID":272,"COUNTY":"PHILADELPHIA, PA","LATITUDE":40.022489670911845,"LONGITUDE":-75.15998456659663,"STATION":"Wayne Junction","RAIL_LINE":"West Trenton Line","MUN_LABEL":"Philadelphia, PA","ATIS_ID":null,"AMTRAK":"N"},"geometry":{"type":"Point","coordinates":[-75.15998634066865,40.022497750182524]}},{"type":"Feature","properties":{"OBJECTID":273,"COUNTY":"PHILADELPHIA, PA","LATITUDE":39.981662274564236,"LONGITUDE":-75.14952726340378,"STATION":"Temple University","RAIL_LINE":"West Trenton Line","MUN_LABEL":"Philadelphia, PA","ATIS_ID":null,"AMTRAK":"N"},"geometry":{"type":"Point","coordinates":[-75.14952903167644,39.981670346113475]}},{"type":"Feature","properties":{"OBJECTID":274,"COUNTY":"PHILADELPHIA, PA","LATITUDE":39.95262006053202,"LONGITUDE":-75.15838369524371,"STATION":"Jefferson Station","RAIL_LINE":"West Trenton Line","MUN_LABEL":"Philadelphia, PA","ATIS_ID":null,"AMTRAK":"N"},"geometry":{"type":"Point","coordinates":[-75.15838546455599,39.95262812599706]}},{"type":"Feature","properties":{"OBJECTID":275,"COUNTY":"PHILADELPHIA, PA","LATITUDE":39.95419699457521,"LONGITUDE":-75.16733862648336,"STATION":"Suburban Station","RAIL_LINE":"West Trenton Line","MUN_LABEL":"Philadelphia, PA","ATIS_ID":null,"AMTRAK":"N"},"geometry":{"type":"Point","coordinates":[-75.16734039872715,39.95420506003115]}},{"type":"Feature","properties":{"OBJECTID":276,"COUNTY":"PHILADELPHIA, PA","LATITUDE":39.99726491187988,"LONGITUDE":-75.15532376571599,"STATION":"North Philadelphia","RAIL_LINE":"Trenton Line","MUN_LABEL":"Philadelphia, PA","ATIS_ID":null,"AMTRAK":"Y"},"geometry":{"type":"Point","coordinates":[-75.15532553677428,39.99727298631621]}},{"type":"Feature","properties":{"OBJECTID":277,"COUNTY":"BUCKS, PA","LATITUDE":40.071779169011364,"LONGITUDE":-74.95224469371847,"STATION":"Cornwells Heights","RAIL_LINE":"Trenton Line","MUN_LABEL":"Bensalem Township, PA","ATIS_ID":null,"AMTRAK":"Y"},"geometry":{"type":"Point","coordinates":[-74.95224640492715,40.07178726551714]}},{"type":"Feature","properties":{"OBJECTID":278,"COUNTY":"PHILADELPHIA, PA","LATITUDE":40.054431325066425,"LONGITUDE":-74.98449809521775,"STATION":"Torresdale","RAIL_LINE":"Trenton Line","MUN_LABEL":"Philadelphia, PA","ATIS_ID":null,"AMTRAK":"N"},"geometry":{"type":"Point","coordinates":[-74.98449981560475,40.054439416977665]}},{"type":"Feature","properties":{"OBJECTID":279,"COUNTY":"PHILADELPHIA, PA","LATITUDE":40.03264931354095,"LONGITUDE":-75.02385568321978,"STATION":"Holmesburg Junction","RAIL_LINE":"Trenton Line","MUN_LABEL":"Philadelphia, PA","ATIS_ID":null,"AMTRAK":"N"},"geometry":{"type":"Point","coordinates":[-75.02385741476526,40.03265739972158]}},{"type":"Feature","properties":{"OBJECTID":280,"COUNTY":"PHILADELPHIA, PA","LATITUDE":40.010713338782,"LONGITUDE":-75.06987585846736,"STATION":"Bridesburg","RAIL_LINE":"Trenton Line","MUN_LABEL":"Philadelphia, PA","ATIS_ID":null,"AMTRAK":"N"},"geometry":{"type":"Point","coordinates":[-75.06987760326895,40.010721418959484]}},{"type":"Feature","properties":{"OBJECTID":281,"COUNTY":"BUCKS, PA","LATITUDE":40.105037032515426,"LONGITUDE":-74.85464155003076,"STATION":"Bristol","RAIL_LINE":"Trenton Line","MUN_LABEL":"Bristol Borough, PA","ATIS_ID":null,"AMTRAK":"N"},"geometry":{"type":"Point","coordinates":[-74.85464323227973,40.1050451391027]}},{"type":"Feature","properties":{"OBJECTID":282,"COUNTY":"BUCKS, PA","LATITUDE":40.09357537158277,"LONGITUDE":-74.90657547607869,"STATION":"Croydon","RAIL_LINE":"Trenton Line","MUN_LABEL":"Bristol Township, PA","ATIS_ID":null,"AMTRAK":"N"},"geometry":{"type":"Point","coordinates":[-74.90657717411813,40.09358347404274]}},{"type":"Feature","properties":{"OBJECTID":283,"COUNTY":"BUCKS, PA","LATITUDE":40.0829936962741,"LONGITUDE":-74.93370268203591,"STATION":"Eddington","RAIL_LINE":"Trenton Line","MUN_LABEL":"Bensalem Township, PA","ATIS_ID":null,"AMTRAK":"N"},"geometry":{"type":"Point","coordinates":[-74.93370438804203,40.08300179566641]}},{"type":"Feature","properties":{"OBJECTID":284,"COUNTY":"PHILADELPHIA, PA","LATITUDE":40.02322592509071,"LONGITUDE":-75.03902388818938,"STATION":"Tacony","RAIL_LINE":"Trenton Line","MUN_LABEL":"Philadelphia, PA","ATIS_ID":null,"AMTRAK":"N"},"geometry":{"type":"Point","coordinates":[-75.03902562397157,40.02323400885801]}},{"type":"Feature","properties":{"OBJECTID":285,"COUNTY":"BUCKS, PA","LATITUDE":40.140258839724964,"LONGITUDE":-74.81701643622182,"STATION":"Levittown","RAIL_LINE":"Trenton Line","MUN_LABEL":"Tullytown Borough, PA","ATIS_ID":null,"AMTRAK":"N"},"geometry":{"type":"Point","coordinates":[-74.81701810865687,40.140266954632196]}}]}